year,sale_date,price,description_of_property,property_size_description,formatted_address,latitude,longitude,geo_county
2013,19/12/2013,250000,New,,"Northumberland Court, Northumberland Rd, Dublin 4, Ireland",53.336927,-6.2386306,Dublin City
2015,16/10/2015,254625,New,greater than or equal to 38 sq metres and less than 125 sq metres,"60 The Elms, Rathingle, Co. Dublin, Ireland",53.4478504,-6.252308,Fingal
2017,19/06/2017,299559,New,greater than or equal to 38 sq metres and less than 125 sq metres,"Belltree Avenue, Donaghmede, Dublin, Ireland",53.4065193,-6.1564006,Dublin City
2013,26/07/2013,110000,New,,"11 Oldchurch Cres, Bawnoges, Dublin 22, D22 E722, Ireland",53.3203267,-6.4158564,South Dublin
2016,28/10/2016,430000,New,,"Beverton Lodge, Ascaill Thuirbhe, Beaverstown, Donabate, Co. Dublin, Ireland",53.4896354,-6.1609281,Fingal
2016,28/10/2016,725000,New,,"14 Coulson Ave, Dublin 6, D06 HE97, Ireland",53.3143313,-6.2773775,Dublin City
2015,24/07/2015,495000,New,,"Dublin, Ireland",53.3498053,-6.2603097,Dublin City
2016,27/09/2016,308400,New,greater than or equal to 38 sq metres and less than 125 sq metres,"Phelan Ave, Ashtown, Dublin, Ireland",53.3766161,-6.3166766,Dublin City
2017,14/03/2017,375000,New,,"Apartment 2, Avoca Court, Avoca Ave, Carrysfort, Blackrock, Co. Dublin, Ireland",53.2960147,-6.1904205,DLR
2017,03/03/2017,352422,New,greater than or equal to 38 sq metres and less than 125 sq metres,"Honeypark, DÃŒÂ¼n Laoghaire, Co. Dublin, Ireland",53.2804207,-6.143294,DLR
2012,01/05/2012,132159,New,greater than or equal to 38 sq metres and less than 125 sq metres,"2, Castlegate House, Adamstown Ave, Adamstown Castle, Lucan, Co. Dublin, Ireland",53.3375978,-6.4620437,South Dublin
2015,26/06/2015,445000,New,,"Stone Loft, Barnhill Rd, Dalkey, Co. Dublin, Ireland",53.2775459,-6.1120947,DLR
2014,19/12/2014,205000,New,,"Riverwood Hall, Carpenterstown Road, Carpenterstown, Dublin 15, Ireland",53.37729,-6.3936054,Fingal
2014,26/09/2014,380000,New,,"8 Brookvale Rd, Dublin 4, D04 A9P0, Ireland",53.3182128,-6.2342011,Dublin City
2017,16/02/2017,242359,New,greater than or equal to 38 sq metres and less than 125 sq metres,"33 Glenageary Rd Upper, Honeypark, Dublin, Ireland",53.2827569,-6.141109,DLR
2014,22/01/2014,236150,New,,"S Circular Rd, Dublin, Co. Dublin, Ireland",53.3350347,-6.2936469,Dublin City
2015,28/01/2015,308370,New,greater than or equal to 38 sq metres and less than 125 sq metres,"Brandon Square, Waterville, Blanchardstown, Co. Dublin, Ireland",53.3927045,-6.3660461,Fingal
2013,16/09/2013,390000,New,,"32 Rathmore Ave, Kilmacud, Blackrock, Co. Dublin, A94 W6D9, Ireland",53.2857016,-6.2169716,DLR
2015,02/04/2015,410000,New,,"Bayview, Pembroke St, Dublin 4, Ireland",53.3387132,-6.221316,Dublin City
2014,26/03/2014,175000,New,,"Trinity Technology & Enterprise Campus, Pearse St, Grand Canal Dock, Dublin 2, Ireland",53.3410848,-6.2407343,Dublin City
2015,15/06/2015,124300,New,greater than or equal to 38 sq metres and less than 125 sq metres,"322, West Park Gate, BÃƒÂ³thar an tSeanbhÃƒÂ¡bhÃƒÂºin, Tallaght, Dublin 24, Ireland",53.2873796,-6.3625987,South Dublin
2013,11/11/2013,125000,New,,"Dublin, Ireland",53.3498053,-6.2603097,Dublin City
2013,02/10/2013,865000,New,,"5 Rosmeen Gardens, DÃƒÂºn Laoghaire, Dublin, A96 A406, Ireland",53.2888507,-6.1295079,DLR
2012,27/11/2012,128000,New,,"6 The Crescent, Robswalls, Malahide, Co. Dublin, Ireland",53.4446748,-6.1322333,Fingal
2016,21/09/2016,565000,New,,"57 Navan Rd, Skreen Rd, Cabra West, Dublin 7, D07 Y6Y2, Ireland",53.3618784,-6.3077839,Dublin City
2013,23/05/2013,49500,New,,"17 Sheepmoor Grove, Blakestown, Dublin 15, D15 PKE1, Ireland",53.3941896,-6.4008642,Fingal
2017,03/03/2017,308370,New,greater than or equal to 38 sq metres and less than 125 sq metres,"118, Neptune Lodge, Sandycove Point, DÃŒÂ¼n Laoghaire, Dublin, Ireland",53.2890348,-6.114664,DLR
2014,09/12/2014,114136,New,greater than or equal to 38 sq metres and less than 125 sq metres,"Portland St N, Ballybough, Dublin, Ireland",53.3596158,-6.2562152,Dublin City
2017,07/04/2017,216706,New,greater than or equal to 38 sq metres and less than 125 sq metres,"33 Glenageary Rd Upper, Honeypark, Dublin, Ireland",53.2827569,-6.141109,DLR
2013,15/10/2013,305000,New,,"42 Chanel Rd, Beaumont, Dublin 5, D05 P2P5, Ireland",53.3872079,-6.2051022,Dublin City
2015,16/07/2015,237000,New,,"3 Ivar St, Arbour Hill, Dublin 7, D07 C6C6, Ireland",53.3521405,-6.2854308,Dublin City
2012,01/11/2012,70000,New,,"N Circular Rd, Dublin, Co. Dublin, Ireland",53.3602656,-6.2767753,Dublin City
2014,11/07/2014,132057,New,greater than or equal to 38 sq metres and less than 125 sq metres,"Dublin, Ireland",53.3498053,-6.2603097,Dublin City
2012,23/11/2012,290000,New,,"39 Botanic Ave, Drumcondra, Dublin 9, D09 A8X4, Ireland",53.3717636,-6.2660892,Dublin City
2016,02/06/2016,246000,New,,"4 Swords Rd, Lissadel Wood, Yellow Walls, Malahide, Co. Dublin, K36 FX54, Ireland",53.4517926,-6.1893041,Fingal
2013,12/03/2013,212500,New,,"Portmarnock, Co. Dublin, Ireland",53.4256084,-6.1316039,Fingal
2012,20/08/2012,205000,New,,"Grand Canal Street Upper, Dublin, Ireland",53.337964,-6.2364865,Dublin City
2016,17/02/2016,130114,New,,"Elm Park Service Station, 196 Merrion Rd, Dublin 4, D04 Y8V0, Ireland",53.3137958,-6.2074132,Dublin City
2015,27/11/2015,216660,New,,"223 Cruise Park Dr, Tyrrelstown, Dublin 15, D15 PX6V, Ireland",53.4199906,-6.3954437,Fingal
2014,07/11/2014,318500,New,,"Wingfield, Sandyford, Dublin, Ireland",53.2511903,-6.2065525,DLR
2016,07/06/2016,375771,New,greater than or equal to 38 sq metres and less than 125 sq metres,"Trimbleston, Goatstown Rd, Friarland, Dublin 14, Ireland",53.2983908,-6.2315228,DLR
2016,06/09/2016,138000,New,,"21 Deanstown Rd, Finglas West, Dublin 11, D11 H9H6, Ireland",53.3859463,-6.3168578,Dublin City
2012,02/10/2012,123000,New,,"59 Griffith Parade, Finglas East, Dublin 11, D11 APF7, Ireland",53.3825678,-6.2818589,Dublin City
2015,11/12/2015,275000,New,,"6 Hampton Wood Lawn, Hampton Wood, Dublin 11, D11 EN22, Ireland",53.4041841,-6.2848646,Dublin City
2013,06/09/2013,140105,New,greater than or equal to 38 sq metres and less than 125 sq metres,"Sandyford, Dublin, Ireland",53.2719967,-6.2207197,DLR
2014,04/09/2014,155000,New,greater than or equal to 38 sq metres and less than 125 sq metres,"Hollybrook Manor, Hollybrook Park, Clontarf West, Dublin 3, Ireland",53.3663997,-6.2183296,Dublin City
2017,16/05/2017,317652,New,,"15 Bridge St, Dublin 4, D04 K0T2, Ireland",53.342042,-6.2266072,Dublin City
2014,08/10/2014,522500,New,,"4 Kelston Ave, Leopardstown Rd, Newpark, Dublin 18, D18 A6W0, Ireland",53.2769174,-6.1855014,DLR
2016,26/02/2016,340000,New,,"20 Geraldine St, Phibsborough, Dublin 7, D07 F6K4, Ireland",53.3576524,-6.2701524,Dublin City
2017,12/04/2017,156000,New,,"9 Stralem Cres, Ongar Park, Dublin 15, D15 Y9V6, Ireland",53.3928647,-6.433425,Fingal
2014,03/03/2014,198237,New,greater than or equal to 38 sq metres and less than 125 sq metres,"Clongriffin, Dublin, Ireland",53.4013014,-6.1534481,Dublin City
2016,20/12/2016,470000,New,,"Alma House, Alma Pl, Monkstown, Co. Dublin, Ireland",53.2930863,-6.1533935,DLR
2012,06/07/2012,40000,New,,"27 Abbey St, Howth, Dublin, Ireland",53.3868735,-6.0656032,Fingal
2014,30/10/2014,246000,New,,"18 Palmer Park, Rathfarnham, Dublin 16, D16 W9F5, Ireland",53.2808273,-6.2920061,South Dublin
2015,18/06/2015,233846,New,,"18 St Columcille's Dr, Townparks, Swords, Co. Dublin, K67 X2X2, Ireland",53.4591276,-6.2179003,Fingal
2016,16/12/2016,334000,New,,"43 Temple Manor Way, Whitehall, Dublin 12, D12 VN27, Ireland",53.3069729,-6.3286321,South Dublin
2013,25/07/2013,255000,New,,"7 Temple View Park, Clarehall, Dublin 13, D13 P6C8, Ireland",53.4000751,-6.1741731,Dublin City
2014,31/10/2014,302000,New,,"3 Allendale Green, Clonsilla, Dublin 15, D15 T6H2, Ireland",53.3917937,-6.4271658,Fingal
2017,13/04/2017,308370,New,greater than or equal to 38 sq metres and less than 125 sq metres,"75, Neptune Lodge, Sandycove Point, DÃŒÂ¼n Laoghaire, Dublin, Ireland",53.2890348,-6.114664,DLR
2015,05/10/2015,410000,New,,"Linden Square, Grove Ave, Stillorgan, Dublin, Ireland",53.2931907,-6.1944534,DLR
2015,02/12/2015,154000,New,,"Windmill Court, Coolmine, Dublin 15, Ireland",53.3800057,-6.3986169,Fingal
2015,28/01/2015,251754,New,,"Sandyford, Dublin, Ireland",53.2719967,-6.2207197,DLR
2017,13/02/2017,275000,New,,"27 Botanic Ave, Botanic, Dublin 9, D09 H0A3, Ireland",53.372048,-6.2666005,Dublin City
2014,22/12/2014,521995,New,,"Ailesbury Rd, Dublin, Co. Dublin, Ireland",53.3200049,-6.2219016,Dublin City
2017,13/02/2017,339207,New,greater than or equal to 125 sq metres,"Miltonsfields, Swords, Co. Dublin, Ireland",53.4543462,-6.2244447,Fingal
2014,14/10/2014,280000,New,,"13 St Laurence's Grove, Chapelizod, Dublin 20, D20 PV00, Ireland",53.3457661,-6.3456043,Dublin City
2016,31/08/2016,295000,New,greater than or equal to 38 sq metres and less than 125 sq metres,"28 Castlegrange Ave, Castaheany, Dublin, Ireland",53.3993558,-6.4301994,Fingal
2016,16/05/2016,265000,New,,"18 Colthurst Cres, Ballyowen, Lucan, Co. Dublin, K78 EH70, Ireland",53.3471291,-6.4211078,South Dublin
2015,09/03/2015,330000,New,,"23 Kelly's Bay Parade, Ardla, Skerries, Co. Dublin, K34 HV05, Ireland",53.5814574,-6.1312393,Fingal
2015,19/10/2015,267500,New,,"76 Newtownpark Ave, Newtown Castlebyrn, Blackrock, Co. Dublin, A94 W5T1, Ireland",53.2904632,-6.1728028,DLR
2013,06/09/2013,180320,New,greater than or equal to 38 sq metres and less than 125 sq metres,"Sandyford, Dublin, Ireland",53.2719967,-6.2207197,DLR
2014,23/06/2014,167401,New,greater than or equal to 38 sq metres and less than 125 sq metres,"25 Castleland Park View, Kilsough North, Balbriggan, Co. Dublin, K32 FV12, Ireland",53.5996904,-6.1755261,Fingal
2015,22/05/2015,285000,New,,"Woodview Court, Glenalbyn Rd, Stillorgan, Dublin, Ireland",53.2861799,-6.1956525,DLR
2013,19/12/2013,65000,New,,"94 Ratoath Ave, Finglas South, Dublin 11, D11 Y2N8, Ireland",53.3880946,-6.3186963,Dublin City
2016,16/12/2016,310000,New,,"32 Rathbeale Cres, Commons West, Swords, Co. Dublin, K67 V093, Ireland",53.4609226,-6.2298046,Fingal
2015,06/03/2015,147500,New,,"15 Willow Wood Downs, Hartstown, Dublin 15, D15 W9HX, Ireland",53.3903302,-6.41483,Fingal
2014,12/03/2014,175000,New,,"Cranford Court, Stillorgan Rd, Priesthouse, Dublin 4, Ireland",53.3103832,-6.2161727,DLR
2015,23/09/2015,167400,New,greater than or equal to 38 sq metres and less than 125 sq metres,"Swords Rd, Malahide, Co. Dublin, Ireland",53.4500909,-6.1853883,Fingal
2014,24/11/2014,170000,New,,"8 Mount Brown, Ushers, Dublin, Ireland",53.3411684,-6.3003285,Dublin City
2016,17/11/2016,245000,New,greater than or equal to 38 sq metres and less than 125 sq metres,"R111, Rathmines, Co. Dublin City, DUBLIN 6, Ireland",53.3308003,-6.2584469,Dublin City
2014,15/07/2014,162000,New,,"125 Millrace Rd, Pelletstown, Dublin, Ireland",53.3725214,-6.3354695,Fingal
2013,17/06/2013,287000,New,,"6 Bayview Rise, Hackettsland, Killiney, Co. Dublin, A96 YF85, Ireland",53.2440633,-6.1197789,DLR
2016,21/10/2016,800000,New,,"4 Havelock Terrace, Dublin 4, D04 Y037, Ireland",53.3369033,-6.2290409,Dublin City
2017,09/03/2017,310000,New,,"5 Limelawn Hill, Clonsilla, Dublin 15, D15 T0H6, Ireland",53.3837574,-6.4055518,Fingal
2014,11/07/2014,312000,New,,"46 Windermere, Clonsilla, Dublin 15, D15 R85D, Ireland",53.3879798,-6.4289161,Fingal
2013,19/06/2013,259250,New,,"18 Claremont Dr, Ballygall, Dublin 11, D11 FV52, Ireland",53.3836118,-6.2786097,Dublin City
2013,20/12/2013,8000,New,greater than or equal to 38 sq metres and less than 125 sq metres,"Cloonlara Square, Phoenix Park Ave, Phoenix Park Racecourse, Dublin 15, Ireland",53.3733658,-6.3375763,Fingal
2012,05/03/2012,220264,New,greater than or equal to 38 sq metres and less than 125 sq metres,"14 The Blvd Cruise Park, Tyrrelstown, Dublin, Ireland",53.4197546,-6.3917434,Fingal
2016,20/02/2016,287500,New,,"54 Talbot St, Mountjoy, Dublin 1, D01 W6E5, Ireland",53.3512061,-6.250644,Dublin City
2015,10/04/2015,172268,New,,"38, 7 S Circular Rd, Wood Quay, Dublin, Ireland",53.3324353,-6.2688332,Dublin City
2013,15/11/2013,650000,New,,"66 The Stiles Rd, Clontarf East, Dublin 3, D03 X2C9, Ireland",53.3663663,-6.2107836,Dublin City
2016,14/07/2016,150000,New,,"5 Hampton Cove, Kilsough North, Balbriggan, Co. Dublin, K32 D379, Ireland",53.6035618,-6.1670134,Fingal
2015,14/08/2015,221000,New,,"31 Merchant's Square, East Wall, Dublin 3, D03 V6R0, Ireland",53.3515304,-6.2296271,Dublin City
2015,15/01/2015,215000,New,,"4 Fforster Dr, Ballydowd Manor, Lucan, Co. Dublin, K78 A3H2, Ireland",53.3501705,-6.4265965,South Dublin
2014,22/12/2014,247319,New,,"16 Boroimhe Ash, Fosterstown North, Swords, Co. Dublin, K67 DA25, Ireland",53.4454704,-6.2371594,Fingal
2015,27/02/2015,185000,New,,"8 St Joseph's Ave, Drumcondra, Dublin 9, D09 V2F1, Ireland",53.363703,-6.2597643,Dublin City
2015,16/04/2015,230000,New,,"148 Grianan Fidh, Sandyford, Dublin, Ireland",53.262658,-6.2188828,DLR
2014,22/12/2014,82440,New,,"Thornfield Square, Watery Ln, Clondalkin, Dublin 22, Ireland",53.3243492,-6.393099,South Dublin
2012,28/02/2012,90000,New,,"14, 52 Mountjoy Square S, Mountjoy, Dublin 1, D01 NN76, Ireland",53.3555635,-6.2576361,Dublin City
2012,16/04/2012,50000,New,,"11 St David's, Beaumont, Dublin 5, D05 R5C9, Ireland",53.3811105,-6.2188033,Dublin City
2014,25/06/2014,246255,New,,"Templeogue Rd, Bushy Park House, Templeogue, Dublin 6W, Co. Dublin, Ireland",53.30517,-6.29182,Dublin City
2016,20/10/2016,285000,New,greater than or equal to 38 sq metres and less than 125 sq metres,"9 Castlegrange Gardens, Castaheany, Dublin, Ireland",53.3988451,-6.4302391,Fingal
2016,28/10/2016,215000,New,,"Apartment 12, Woodleigh Oak, Highfield Rd, Dublin 6, Ireland",53.3134163,-6.2643989,Dublin City
2015,27/04/2015,236159,New,greater than or equal to 38 sq metres and less than 125 sq metres,"Apartment 206, Timeplace, Corrig Rd, Sandyford Industrial Estate, Dublin 18, Ireland",53.2766933,-6.2150565,DLR
2014,25/06/2014,201661,New,,"Templeogue Rd, Bushy Park House, Templeogue, Dublin 6W, Co. Dublin, Ireland",53.30517,-6.29182,Dublin City
2016,01/04/2016,295000,New,,"Slade Rd, Saggart, Co. Dublin, Ireland",53.27784,-6.4486989,South Dublin
2014,07/10/2014,230326,New,greater than or equal to 38 sq metres and less than 125 sq metres,"Sandyford, Dublin, Ireland",53.2719967,-6.2207197,DLR
2013,23/08/2013,193000,New,,"205 Clon Brugh, Sandyford, Dublin, Ireland",53.2632872,-6.2268442,DLR
2016,20/05/2016,197000,New,,"The Red Mill Apartments, Brunswick St N, Smithfield, Dublin 7, Ireland",53.350279,-6.2781383,Dublin City
2012,22/10/2012,522000,New,,"212 Grange Rd, Rathfarnham, Dublin 16, D16 Y684, Ireland",53.2823802,-6.2784679,South Dublin
2012,09/11/2012,185000,New,,"45 Ardlea Rd, Beaumont, Dublin 5, D05 K2T5, Ireland",53.3850717,-6.2074848,Dublin City
2016,07/10/2016,185000,New,,"21 Maxwell St, Merchants Quay, Dublin 8, D08 R2H7, Ireland",53.336699,-6.2862569,Dublin City
2015,27/08/2015,220500,New,,"8 Oakview Grove, Huntstown, Dublin 15, D15 K0Y3, Ireland",53.3928151,-6.4168715,Fingal
2013,10/05/2013,585000,New,,"25 Lynwood, Dundrum, Dublin 16, Ireland",53.2840107,-6.2436377,DLR
2015,24/07/2015,210000,New,,"The Quarry, Carrickhill Rd Upper, Carrickhill, Portmarnock, Co. Dublin, Ireland",53.4320551,-6.1337584,Fingal
2016,07/04/2016,460000,New,,"22, Harbour Court, George's Pl, DÃƒÂºn Laoghaire, Dublin, Ireland",53.2951756,-6.141188,DLR
2013,28/08/2013,711500,New,,"4 The Moorings, Malahide, Co. Dublin, K36 XT82, Ireland",53.4499125,-6.1441944,Fingal
2013,26/03/2013,115000,New,,"Hayden House, Main St, Rathcoole, Co. Dublin, Ireland",53.2817915,-6.4665722,South Dublin
2015,15/01/2015,158000,New,,"37 Monksfield Ct, Knockmitten, Dublin 22, D22 AK27, Ireland",53.3232965,-6.378026,South Dublin
2017,10/01/2017,225000,New,,"Cranford Court, Stillorgan Rd, Priesthouse, Dublin 4, Ireland",53.3103832,-6.2161727,DLR
2013,08/11/2013,741000,New,,"69 Brighton Rd, Dublin, Ireland",53.3121526,-6.27809,Dublin City
2015,15/06/2015,111834,New,greater than or equal to 38 sq metres and less than 125 sq metres,"302, Ballymount Cross Business Park, Ballymount Rd Lower, Ballymount, Dublin 24, Ireland",53.3131493,-6.3596101,South Dublin
2012,20/01/2012,325000,New,,"62 Marley Ct, Whitehall, Dublin, Ireland",53.2863681,-6.2672388,DLR
2017,06/01/2017,365000,New,,"305 The Crescent, Belgard Heights, Dublin 24, D24 F6K8, Ireland",53.2975199,-6.3818097,South Dublin
2016,07/11/2016,332000,New,,"7 Derrynane Parade, Phibsborough, Dublin 7, D07 E0K8, Ireland",53.3609319,-6.2637263,Dublin City
2012,27/07/2012,143612,New,greater than or equal to 38 sq metres and less than 125 sq metres,"204, Beacon South Quarter, Sandyford, Dublin 18, Ireland",53.277902,-6.2175132,DLR
2017,20/04/2017,625000,New,,"13 Grace Park Gardens, Drumcondra, Dublin 9, D09 VY59, Ireland",53.3684128,-6.2480925,Dublin City
2013,30/04/2013,280000,New,,"10 Skerries Rd, Kilsough North, Balbriggan, Co. Dublin, K32 X583, Ireland",53.6021866,-6.1663533,Fingal
2014,08/07/2014,160000,New,,"57 Bunratty Ave, Bonnybrook, Dublin 17, D17 FC89, Ireland",53.3948969,-6.2037146,Dublin City
2014,22/07/2014,98100,New,,"32 Clearstream Ct, Finglas North, Dublin, Ireland",53.3927908,-6.3002166,Dublin City
2013,06/08/2013,315000,New,,"4 Bellevue Park Ave, Blackrock, Co. Dublin, A94 Y072, Ireland",53.3121678,-6.2083064,Dublin City
2015,07/08/2015,246000,New,,"9 Anglesea House, Ballsbridge Court, Serpentine Ave, Dublin 4, Ireland",53.3314503,-6.2264672,Dublin City
2013,27/09/2013,263000,New,,"31 Rosemount Terrace, Booterstown, Dublin, Ireland",53.3049466,-6.2013929,DLR
2017,14/03/2017,217157,New,greater than or equal to 38 sq metres and less than 125 sq metres,"33 Glenageary Rd Upper, Honeypark, Dublin, Ireland",53.2827569,-6.141109,DLR
2014,13/10/2014,488986,New,greater than or equal to 38 sq metres and less than 125 sq metres,"Brickfield Dr, Honeypark, Dublin, Ireland",53.279871,-6.1462474,DLR
2016,22/06/2016,335000,New,,"30 Monalea Grove, Knocklyon, Dublin 24, D24 Y6X3, Ireland",53.2814165,-6.3316143,South Dublin
2015,03/03/2015,100000,New,,"Dublin, Ireland",53.3498053,-6.2603097,Dublin City
2014,03/10/2014,129798,New,,"Portland St N, Ballybough, Dublin, Ireland",53.3596158,-6.2562152,Dublin City
2015,09/04/2015,273127,New,greater than or equal to 38 sq metres and less than 125 sq metres,"Brandon Square, Waterville, Blanchardstown, Co. Dublin, Ireland",53.3927045,-6.3660461,Fingal
2014,14/04/2014,225000,New,,"34 Bigger Rd, Walkinstown, Dublin 12, D12 YYT2, Ireland",53.317427,-6.3264604,Dublin City
2015,10/12/2015,1315000,New,,"5 Brighton Ave, Mountashton, Blackrock, Co. Dublin, A94 H299, Ireland",53.2948309,-6.1567948,DLR
2012,18/06/2012,400000,New,,"70 Rathfarnham Wood, Rathfarnham, Dublin 14, D14 F5F6, Ireland",53.296524,-6.2802022,South Dublin
2014,07/10/2014,288528,New,greater than or equal to 38 sq metres and less than 125 sq metres,"207, The Cubes Offices Beacon South Quarter, Sandyford, Dublin 18, Ireland",53.2775885,-6.2155982,DLR
2016,01/12/2016,910000,New,,"45 Warner's Ln, Dublin 6, D06 AK13, Ireland",53.331114,-6.2535093,Dublin City
2015,15/06/2015,132522,New,greater than or equal to 38 sq metres and less than 125 sq metres,"345, West Park Gate, BÃƒÂ³thar an tSeanbhÃƒÂ¡bhÃƒÂºin, Tallaght, Dublin 24, Ireland",53.2873796,-6.3625987,South Dublin
2015,30/09/2015,360000,New,,"90 Bunbury Gate Cres, Outlands, Swords, Co. Dublin, K67 CF96, Ireland",53.4689433,-6.2382883,Fingal
2015,04/12/2015,400000,New,,"64 Westbourne Lodge, Ballyroan, Dublin 16, D16 AT88, Ireland",53.2877565,-6.3200204,South Dublin
2013,01/07/2013,131000,New,,"Bath Ave, Shaws Ln, Dublin, Ireland",53.3373541,-6.2308857,Dublin City
2013,01/08/2013,225000,New,,"62 Cherbury Ct, Merrion, Dublin, Ireland",53.3008971,-6.1987221,DLR
2015,22/12/2015,138000,New,,"21 Ellensborough Lodge, Kiltipper, Dublin, Ireland",53.2685024,-6.3698481,South Dublin
2016,29/02/2016,127000,New,,"43, Carnegie Court, North St, Townparks, Swords, Co. Dublin, Ireland",53.461914,-6.2179069,Fingal
2012,12/03/2012,258000,New,,"94 St David's, Beaumont, Dublin 5, D05 W9K6, Ireland",53.3819907,-6.2174227,Dublin City
2014,10/10/2014,502000,New,,"12 College Park, Terenure, Dublin 6W, Co. Dublin, D6W PX71, Ireland",53.3047723,-6.3049641,South Dublin
2014,12/02/2014,106000,New,,"7 Corduff Cres, Corduff, Dublin 15, D15 CV0N, Ireland",53.3964685,-6.3773689,Fingal
2017,10/02/2017,524229,New,greater than or equal to 125 sq metres,"Woodbank, Dublin Rd, Shankill, Dublin 18, Ireland",53.2368594,-6.1277419,DLR
2016,07/06/2016,169000,New,,"56 Maplewood Rd, Springfield, Dublin 24, D24 V3V7, Ireland",53.2869484,-6.3846743,South Dublin
2015,15/06/2015,107679,New,greater than or equal to 38 sq metres and less than 125 sq metres,"8 Westpark, Tallaght, Dublin 24, D24 AT2R, Ireland",53.2873413,-6.3636668,South Dublin
2017,10/03/2017,590000,New,,"3 Arnold Park, Glenageary, Dublin, A96 F7D6, Ireland",53.2710631,-6.1339874,DLR
2015,20/07/2015,805000,New,,"51 Parkmore Dr, Terenure, Dublin 6W, Co. Dublin, D6W C564, Ireland",53.3091601,-6.2963328,Dublin City
2015,15/06/2015,91123,New,greater than or equal to 38 sq metres and less than 125 sq metres,"336, West Park Gate, BÃƒÂ³thar an tSeanbhÃƒÂ¡bhÃƒÂºin, Tallaght, Dublin 24, Ireland",53.2873796,-6.3625987,South Dublin
2015,22/12/2015,185000,New,,"Brabazon Hall, Ardee St, Merchants Quay, Dublin 8, Ireland",53.3391423,-6.2804451,Dublin City
2013,21/03/2013,380000,New,,"64 Grace Park Rd, Clontarf, Dublin 9, D09 C5P8, Ireland",53.3745674,-6.2426249,Dublin City
2014,25/06/2014,229838,New,,"Templeogue Rd, Bushy Park House, Templeogue, Dublin 6W, Co. Dublin, Ireland",53.30517,-6.29182,Dublin City
2014,17/12/2014,78955,New,greater than or equal to 38 sq metres and less than 125 sq metres,"Ashtown, Dublin, Ireland",53.3678093,-6.3181386,Dublin City
2014,31/03/2014,625000,New,,"6 Brewery Rd, Ellesmere, Stillorgan, Dublin, A94 AP57, Ireland",53.279091,-6.1990082,DLR
2016,21/11/2016,572687,New,greater than or equal to 125 sq metres,"Blackberry Hill, Glenamuck Rd, Dublin 18, Ireland",53.2510443,-6.1765762,DLR
2016,27/04/2016,560000,New,,"15 Botanic Rd, Drumcondra, Dublin 9, D09 V5X0, Ireland",53.3664247,-6.270793,Dublin City
2014,04/12/2014,730000,New,less than 38 sq metres,"6 Fortfield Square, Terenure, Dublin 6W, Co. Dublin, D6W FD71, Ireland",53.3040583,-6.3024865,South Dublin
2016,15/02/2016,155000,New,,"1 Willan's Grove S, Ongar Green, Dublin 15, D15 N2K1, Ireland",53.3940653,-6.4435987,Fingal
2013,20/09/2013,90000,New,,"9 Station Rd, Portmarnock, Co. Dublin, Ireland",53.4185691,-6.1509631,Fingal
2016,07/11/2016,265000,New,,"Church View, Church Ave, Grace Park Rd, Drumcondra, Dublin 9, Ireland",53.3713141,-6.2515589,Dublin City
2015,22/12/2015,187000,New,,"16 Benmadigan Rd, Crumlin, Dublin 12, D12 R262, Ireland",53.3337061,-6.3132032,Dublin City
2015,01/12/2015,172000,New,,"11 Fforster Cres, Ballydowd Manor, Lucan, Co. Dublin, K78 P029, Ireland",53.3504081,-6.4255135,South Dublin
2015,22/10/2015,315000,New,,"6 Crestfield Park, Whitehall, Dublin 9, D09 AK57, Ireland",53.3873025,-6.2517855,Dublin City
2015,11/05/2015,254000,New,,"24 Woodview Cl, Donaghmede, Dublin 13, D13 V120, Ireland",53.39356,-6.1672837,Dublin City
2016,17/05/2016,140000,New,,"178 Larkhill Rd, Whitehall, Dublin 9, D09 A024, Ireland",53.3855019,-6.2499425,Dublin City
2015,27/02/2015,90000,New,,"34 Valley Park Rd, Finglas South, Dublin, Ireland",53.382019,-6.3185739,Dublin City
2014,19/12/2014,229074,New,greater than or equal to 38 sq metres and less than 125 sq metres,"25 Millrace Park, Saggart, Co. Dublin, D24 NN25, Ireland",53.2810125,-6.4532306,South Dublin
2013,31/07/2013,208000,New,,"75b, 7 Newmarket St, Merchants Quay, Dublin, Ireland",53.3390815,-6.2760134,Dublin City
2012,12/10/2012,220264,New,greater than or equal to 38 sq metres and less than 125 sq metres,"Booterstown Wood, Booterstown Ave, Merrion, Blackrock, Co. Dublin, Ireland",53.2992523,-6.204387,DLR
2015,31/08/2015,160000,New,,"Dublin, Ireland",53.3498053,-6.2603097,Dublin City
2015,03/09/2015,220000,New,,"Blind Quay Apartments, Exchange Street Lower, Dublin 8, Ireland",53.3449786,-6.2685152,Dublin City
2013,04/10/2013,488987,New,greater than or equal to 38 sq metres and less than 125 sq metres,"7 Claremont Ave, Honeypark, Dublin, Ireland",53.2827019,-6.1466374,DLR
2016,17/11/2016,261000,New,,"Glenarm Square, St Joseph's Ave, Drumcondra, Dublin 9, Ireland",53.3655122,-6.257668,Dublin City
2016,17/06/2016,434000,New,greater than or equal to 38 sq metres and less than 125 sq metres,"Apartment 31 Saunders House, Duga Spencer, North Wall, Dublin 1, Ireland",53.3493461,-6.2379128,Dublin City
2013,26/04/2013,110132,New,greater than or equal to 38 sq metres and less than 125 sq metres,"10 Chapel Cres, Riverston Abbey, Dublin 7, D07 FD92, Ireland",53.3723296,-6.3106963,Dublin City
2015,10/09/2015,130000,New,,"12 Corduff Grove, Corduff, Dublin 15, D15 KP8K, Ireland",53.4002452,-6.3779344,Fingal
2012,22/08/2012,460000,New,,"8 Whitton Rd, Terenure, Dublin 6, D06 W882, Ireland",53.3124745,-6.2813992,Dublin City
2014,19/09/2014,142000,New,,"9 Spiddal Rd, Cherry Orchard, Dublin 10, D10 T923, Ireland",53.3395011,-6.3624456,Dublin City
2017,10/03/2017,361233,New,greater than or equal to 38 sq metres and less than 125 sq metres,"Ashfield Avenue, Rathingle, Co. Dublin, Ireland",53.4489414,-6.2510781,Fingal
2015,05/06/2015,320000,New,,"18 Charnwood Grove, Clonsilla, Dublin 15, D15 T0X6, Ireland",53.3872842,-6.4157442,Fingal
2012,20/04/2012,380000,New,,"4 Wheatfield Rd, Carrickhill, Portmarnock, Co. Dublin, D13 NF82, Ireland",53.4356025,-6.1330562,Fingal
2015,23/10/2015,422908,New,less than 38 sq metres,"24 Cabra Dr, Cabra East, Dublin 7, D07 XT04, Ireland",53.3593336,-6.2913039,Dublin City
2012,19/07/2012,179000,New,,"7 Brookdale Way, Hilltown, Swords, Co. Dublin, K67 Y9C5, Ireland",53.4534696,-6.2481523,Fingal
2014,09/05/2014,2400000,New,,"48 Wellington Rd, Dublin 4, D04 N1K8, Ireland",53.3294014,-6.240877,Dublin City
2012,27/07/2012,152422,New,greater than or equal to 38 sq metres and less than 125 sq metres,"515, Beacon South Quarter, Sandyford, Dublin 18, Ireland",53.277902,-6.2175132,DLR
2016,04/11/2016,174900,New,,"Santry Park, Santry Demesne, Dublin 9, Co. Dublin, Ireland",53.4022301,-6.2475885,Fingal
2012,24/10/2012,144000,New,,"8 Willows Ct, Dublin, Ireland",53.3894431,-6.4148021,Fingal
2017,05/05/2017,726000,New,,"4 Upper Carysfort Ave, Stillorgan Park, Blackrock, Co. Dublin, A94 K1C5, Ireland",53.2910522,-6.1799868,DLR
2012,12/01/2012,485000,New,,"16C Park Ln, Dublin 4, D04 W522, Ireland",53.3254534,-6.2160389,Dublin City
2013,08/01/2013,402000,New,,"75 Dodder Rd Lower, Rathfarnham, Dublin 14, D14 WC03, Ireland",53.3043438,-6.2733352,South Dublin
2014,16/12/2014,191500,New,,"Apartment 35, Tandy Court, Spitalfields, Merchants Quay, Dublin 8, Ireland",53.3404899,-6.2751882,Dublin City
2016,03/03/2016,618500,New,,"28 Millview Lawns, Yellow Walls, Malahide, Co. Dublin, K36 X091, Ireland",53.4514456,-6.1765756,Fingal
2015,09/06/2015,205000,New,greater than or equal to 38 sq metres and less than 125 sq metres,"12 Millrace Dr, Saggart, Co. Dublin, D24 RR66, Ireland",53.2807811,-6.4514393,South Dublin
2013,18/06/2013,215000,New,,"72 Shanboley Rd, Whitehall, Dublin 9, D09 E6P3, Ireland",53.3896996,-6.2366713,Dublin City
2012,12/12/2012,61526,New,,"Raheny, Co. Dublin, Ireland",53.3804065,-6.1750943,Dublin City
2013,16/09/2013,233000,New,,"3 St Colmcille's Ct, Swords, Co. Dublin, Ireland",53.457225,-6.2214863,Fingal
2014,18/08/2014,357000,New,,"15 Woodville Ave, Ballydowd, Lucan, Co. Dublin, K78 P7E5, Ireland",53.3575221,-6.4273332,South Dublin
2015,04/11/2015,255000,New,,"19 Turnapin Cottages, Turnapin Little, Dublin 17, D17 HW67, Ireland",53.4096345,-6.2321349,Fingal
2012,31/01/2012,75000,New,,"5 Westwood Ave, Finglas South, Dublin 11, D11 H7V2, Ireland",53.3838081,-6.3198748,Dublin City
2017,06/04/2017,462000,New,,"178 Grace Park Road, Clontarf, Dublin 9, D09 RK51, Ireland",53.3794617,-6.240176,Dublin City
2012,20/12/2012,197500,New,,"1A Auburn Ave, Glenageary, Dublin, A96 H6Y8, Ireland",53.2661916,-6.1407488,DLR
2014,07/10/2014,288528,New,greater than or equal to 38 sq metres and less than 125 sq metres,"Sandyford, Dublin, Ireland",53.2719967,-6.2207197,DLR
2016,22/10/2016,80000,New,,"72 Abbotstown Ave, Finglas West, Dublin 11, D11 E6N3, Ireland",53.388323,-6.3143109,Dublin City
2013,31/07/2013,220000,New,,"1 Parkhill Ct, Kilnamanagh, Dublin 24, D24 PA6N, Ireland",53.3011081,-6.3683387,South Dublin
2015,13/08/2015,235000,New,,"13 Boroimhe Beech, Fosterstown North, Swords, Co. Dublin, Ireland",53.4444019,-6.234398,Fingal
2014,19/11/2014,385000,New,,"Apartment 11, Brendan House, Brendan Rd, Dublin 4, Ireland",53.324787,-6.2368534,Dublin City
2014,31/01/2014,100000,New,,"The Strand, N Strand Rd, North Strand, Dublin 3, Ireland",53.3569494,-6.2427951,Dublin City
2015,24/07/2015,210000,New,,"13 Thornleigh Pl, Thornleigh, Swords, Co. Dublin, K67 H796, Ireland",53.4717515,-6.229946,Fingal
2015,08/06/2015,782000,New,,"4 Trimleston Gardens, Merrion, Blackrock, Co. Dublin, A94 A970, Ireland",53.3102286,-6.2030456,DLR
2014,01/04/2014,375000,New,,"Harbour Lodge, Harbour Square, Crofton Rd, DÃƒÂºn Laoghaire, Dublin, Ireland",53.2955936,-6.1374797,DLR
2016,03/05/2016,337000,New,,"96 Harcourt Green, Charlemont Street, Ireland",53.3315886,-6.2606188,Dublin City
2015,10/04/2015,247898,New,,"9, 7 S Circular Rd, Wood Quay, Dublin, Ireland",53.3324353,-6.2688332,Dublin City
2017,29/03/2017,434000,New,,"3 Croydon Terrace, Clontarf, Dublin 3, D03 K0N7, Ireland",53.3710347,-6.2375025,Dublin City
2014,23/04/2014,157000,New,,"87, Northwood House, Northwood Park, North Wood, Dublin 9, Ireland",53.4013443,-6.2588192,Fingal
2015,16/10/2015,221000,New,,"Dublin, Ireland",53.3498053,-6.2603097,Dublin City
2016,09/03/2016,470000,New,,"13 Griffith Ave, Clontarf West, Dublin 9, D09 X9X4, Ireland",53.3688428,-6.2294029,Dublin City
2013,06/09/2013,140105,New,greater than or equal to 38 sq metres and less than 125 sq metres,"Sandyford, Dublin, Ireland",53.2719967,-6.2207197,DLR
2016,16/09/2016,207048,New,greater than or equal to 38 sq metres and less than 125 sq metres,"2 Castleland Park View, Castleland, Balbriggan, Co. Dublin, K32 VE80, Ireland",53.5996153,-6.176845,Fingal
2012,01/06/2012,131159,New,,"S Lotts Rd, Dublin, Co. Dublin, Ireland",53.3391848,-6.2327352,Dublin City
2016,03/06/2016,208000,New,,"18 Inglewood Road, Clonsilla, Dublin 15, D15 EK6D, Ireland",53.3900455,-6.4101298,Fingal
2014,25/11/2014,441000,New,,"Woodpark, Ballinteer Ave, Ballinteer, Dublin 16, Ireland",53.2775863,-6.2467223,DLR
2016,04/11/2016,440000,New,,"82 Griffith Ct, Drumcondra, Dublin 3, D03 V2K6, Ireland",53.3691631,-6.2411696,Dublin City
2012,13/12/2012,122000,New,,"Kilmainham Square, Inchicore Rd, Inchicore, Dublin 8, Ireland",53.3425113,-6.3093144,Dublin City
2014,10/09/2014,290000,New,greater than or equal to 38 sq metres and less than 125 sq metres,"27 Brandon Square, Dublin, Ireland",53.3922456,-6.3663619,Fingal
2014,22/10/2014,425000,New,,"83 Larkfield Gardens, Kimmage, Dublin 6W, Co. Dublin, D6W H022, Ireland",53.316807,-6.2903764,Dublin City
2015,14/01/2015,215000,New,,"Dublin, Ireland",53.3498053,-6.2603097,Dublin City
2015,31/10/2015,277000,New,,"13 Bulfin Rd, Inchicore, Dublin 8, D08 Y3Y9, Ireland",53.3396183,-6.3092671,Dublin City
2014,11/12/2014,134500,New,,"Monkstown Manor, Monkstown Farm, DÃƒÂºn Laoghaire, Dublin, Ireland",53.2864051,-6.1567442,DLR
2013,02/10/2013,350000,New,,"Stillorgan Rd, Dublin, Ireland",53.3069905,-6.2136099,DLR
2015,12/11/2015,645000,New,,"17 Washington Park, Rathfarnham, Dublin 14, D14 KX23, Ireland",53.2947851,-6.3031182,South Dublin
2017,02/05/2017,500000,New,,"2 Cherryfield Ave Upper, The Orchard, Dublin 6, D06 K7N8, Ireland",53.3185465,-6.2471691,Dublin City
2014,17/11/2014,132501,New,,"Dublin, Ireland",53.3498053,-6.2603097,Dublin City
2015,16/06/2015,217000,New,,"12 St Cronan's View, Windmill Lands, Swords, Co. Dublin, K67 CH90, Ireland",53.4594659,-6.2403481,Fingal
2015,23/06/2015,542000,New,,"5 Wheatfield Rd, Carrickhill, Portmarnock, Co. Dublin, D13 HY83, Ireland",53.4357181,-6.1330512,Fingal
2016,08/02/2016,242290,New,greater than or equal to 38 sq metres and less than 125 sq metres,"15 Deerpark Pl, Kiltipper, Dublin 24, Ireland",53.2692489,-6.3752745,South Dublin
2016,26/01/2016,100000,New,,"1 Redesdale Rd, Mountmerrion, Mount Merrion, Co. Dublin, A94 V1F9, Ireland",53.2891194,-6.2155401,DLR
2014,10/02/2014,98625,New,greater than or equal to 38 sq metres and less than 125 sq metres,"Waterfall Ave, Drumcondra, Dublin, Ireland",53.3661499,-6.2478381,Dublin City
2014,14/03/2014,280000,New,,"13 Broadfield Dr, Tootenhill, Rathcoole, Co. Dublin, D24 HF72, Ireland",53.2780633,-6.4842413,South Dublin
2013,24/05/2013,165000,New,,"332 Galtymore Rd, Crumlin, Dublin 12, D12 FC81, Ireland",53.3347581,-6.3090199,Dublin City
2014,18/12/2014,159000,New,,"Village Weir, Lower Main St, St. Edmondsbury, Lucan, Co. Dublin, Ireland",53.3592175,-6.4465321,South Dublin
2013,02/08/2013,132500,New,,"29 Carrow Rd, Crumlin, Dublin 12, D12 R678, Ireland",53.3327378,-6.3230425,Dublin City
2014,07/11/2014,248000,New,,"8 St Mochta's Chase, Clonsilla, Dublin 15, D15 K5N2, Ireland",53.3824213,-6.3984112,Fingal
2012,06/07/2012,336000,New,,"Brighton Square, Dublin, Ireland",53.3155025,-6.2802293,Dublin City
2015,21/05/2015,625000,New,,"111 Millview Lawns, Yellow Walls, Malahide, Co. Dublin, K36 N295, Ireland",53.4483504,-6.1781927,Fingal
2012,27/08/2012,160025,New,less than 38 sq metres,"Crosbie's Yard, 64 Ossory Rd, East Wall, Dublin, Ireland",53.3554387,-6.2411408,Dublin City
2016,20/05/2016,425000,New,,"Shanagarry, BÃƒÂ³thar Bhaile an Mhuilinn, Dublin 6, Ireland",53.3088793,-6.2495821,Dublin City
2015,17/11/2015,255000,New,,"The Bottle Works, Dermot O'Hurley Avenue, Dublin 4, Ireland",53.3405071,-6.2262763,Dublin City
2013,11/02/2013,130000,New,,"112 St Jarlath Rd, Cabra East, Dublin 7, D07 Y6T3, Ireland",53.3658036,-6.2885643,Dublin City
2016,24/06/2016,220000,New,,"1 Foxborough Cres, Balgaddy, Lucan, Co. Dublin, K78 K726, Ireland",53.3422101,-6.4237886,South Dublin
2014,26/05/2014,245000,New,,"7 Thornville Park, Donaghmede, Dublin 5, D05 XR86, Ireland",53.3871727,-6.1509199,Dublin City
2015,15/04/2015,273572,New,greater than or equal to 38 sq metres and less than 125 sq metres,"Dublin, Ireland",53.3498053,-6.2603097,Dublin City
2014,22/12/2014,183199,New,,"34 Ropewalk Pl, Dublin, Ireland",53.3424546,-6.2260376,Dublin City
2015,06/03/2015,610000,New,,"3 Tubbermore Rd, Dalkey, Co. Dublin, Ireland",53.2764426,-6.1016821,DLR
2016,06/09/2016,320000,New,,"Apartment 5, Swift Hall, Collegewood, Castleknock, Dublin 15, Ireland",53.3720781,-6.3706031,Fingal
2017,13/03/2017,160000,New,,"24 Marlfield Lawn, Kiltipper, Dublin 24, D24 DX51, Ireland",53.2705031,-6.3694741,South Dublin
2014,11/07/2014,79193,New,greater than or equal to 38 sq metres and less than 125 sq metres,"Dublin, Ireland",53.3498053,-6.2603097,Dublin City
2017,06/04/2017,755000,New,,"25 Carysfort Ave, Blackrock, Co. Dublin, A94 D9R9, Ireland",53.3000176,-6.1794115,DLR
2014,17/10/2014,285450,New,greater than 125 sq metres,"Brandon Square, Waterville, Blanchardstown, Co. Dublin, Ireland",53.3927045,-6.3660461,Fingal
2016,05/07/2016,413633,New,,"5 Drynam Rd, Commons East, Swords, Co. Dublin, Ireland",53.4519246,-6.2124782,Fingal
2012,12/10/2012,260000,New,,"95 Scholarstown Park, Ballyroan, Dublin 16, D16 A6F6, Ireland",53.2816003,-6.3107304,South Dublin
2013,10/01/2013,120000,New,,"46 Westbourne Green, Deansrath, Dublin 22, D22 N5V2, Ireland",53.321375,-6.4178326,South Dublin
2017,21/02/2017,273000,New,,"13 Donaghmede Park, Donaghmede, Dublin 13, D13 HN30, Ireland",53.3930577,-6.1581201,Dublin City
2016,17/05/2016,153000,New,,"20 Claddagh Rd, Cherry Orchard, Dublin 10, D10 TN34, Ireland",53.3411909,-6.3634054,Dublin City
2017,27/03/2017,380000,New,,"Marine Rd, DÃŒÂ¼n Laoghaire, Dun Laoghaire, Co. Dublin, Ireland",53.293897,-6.13367,DLR
2015,25/09/2015,135000,New,greater than or equal to 38 sq metres and less than 125 sq metres,"6, The Ragstore, Millrace Ct, Saggart, Co. Dublin, Ireland",53.2798765,-6.4526109,South Dublin
2016,26/05/2016,1000000,New,,"1, 12 Harrington St, Saint Kevin's, Dublin 8, D08 HX08, Ireland",53.3323221,-6.2666611,Dublin City
2012,27/07/2012,192070,New,greater than or equal to 38 sq metres and less than 125 sq metres,"508, Beacon South Quarter, Sandyford, Dublin 18, Ireland",53.277902,-6.2175132,DLR
2015,15/09/2015,500000,New,,"23 Bellevue Park, Blackrock, Co. Dublin, A94 Y927, Ireland",53.3113684,-6.2082757,DLR
2012,28/11/2012,82000,New,,"9 Rathmintin Cl, Jobstown, Dublin 24, D24 A9Y7, Ireland",53.2792366,-6.4069173,South Dublin
2014,07/10/2014,288528,New,greater than or equal to 38 sq metres and less than 125 sq metres,"Sandyford, Dublin, Ireland",53.2719967,-6.2207197,DLR
2016,11/01/2016,275000,New,,"16 Porter's Gate Ct, Clonsilla, Dublin 15, D15 DT7W, Ireland",53.3854723,-6.4227804,Fingal
2014,01/09/2014,166080,New,less than 38 sq metres,"150 Hampton Wood Ave, Hampton Wood, Dublin 11, Ireland",53.4052711,-6.2848449,Dublin City
2013,17/10/2013,700000,New,,"9 Beech Ct, Rocheshill, Killiney, Co. Dublin, A96 DP78, Ireland",53.2653291,-6.1331797,DLR
2014,23/05/2014,172500,New,,"79 Emmet Rd, Inchicore, Dublin 8, D08 N1F2, Ireland",53.340806,-6.313261,Dublin City
2013,19/12/2013,134116,New,,"2, Chapter House, Abbey Street Upper, North City, Dublin 1, Ireland",53.3474909,-6.2650296,Dublin City
2014,02/10/2014,510000,New,,"6, 133 Anglesea Rd, Dublin, Ireland",53.3202197,-6.2314215,Dublin City
2017,03/03/2017,308370,New,greater than or equal to 38 sq metres and less than 125 sq metres,"Honeypark, DÃŒÂ¼n Laoghaire, Co. Dublin, Ireland",53.2804207,-6.143294,DLR
2014,23/06/2014,225000,New,,"12 Richmond St N, Drumcondra, Dublin 1, D01 E8P8, Ireland",53.3584984,-6.2501776,Dublin City
2016,03/02/2016,233000,New,,"107 River Valley Lawn, Forestfields, Swords, Co. Dublin, Ireland",53.4521033,-6.2317326,Fingal
2013,15/08/2013,90000,New,,"Apartment 3, Rosemount Court, Inchicore Rd, Inchicore, Dublin 8, Ireland",53.342689,-6.3120217,Dublin City
2015,17/12/2015,195000,New,greater than or equal to 38 sq metres and less than 125 sq metres,"11 Hampton Wood Park, Hampton Wood, Dublin 11, D11 Y28E, Ireland",53.4058118,-6.287103,Dublin City
2016,27/05/2016,508000,New,,"4 Orwell Gardens, Newtown Little, Dublin 14, D14 HP62, Ireland",53.3057053,-6.2653365,DLR
2015,29/05/2015,190000,New,,"Dublin, Ireland",53.3498053,-6.2603097,Dublin City
2015,05/01/2015,306000,New,,"147 Owen's Ave, Ceannt Fort, Mount Brown, Dublin 8, D08 FE8D, Ireland",53.3410115,-6.2969261,Dublin City
2015,25/08/2015,815000,New,,"62 Dunluce Rd, Clontarf, Dublin 3, D03 C959, Ireland",53.3709862,-6.1996686,Dublin City
2015,27/08/2015,550000,New,,"25 St Mobhi Rd, Botanic, Dublin 9, D09 H2X5, Ireland",53.3781865,-6.2655504,Dublin City
2012,18/12/2012,365000,New,,"222 Marina Village, Malahide, Co. Dublin, Ireland",53.4532865,-6.1548262,Fingal
2017,16/02/2017,350000,New,,"Steeven's James's, Steeven's Gate Apartments, James's St, Dublin 8, Ireland",53.3436094,-6.2905848,Dublin City
2014,17/12/2014,83361,New,greater than or equal to 38 sq metres and less than 125 sq metres,"Ashtown, Dublin, Ireland",53.3678093,-6.3181386,Dublin City
2013,09/12/2013,140969,New,greater than or equal to 38 sq metres and less than 125 sq metres,"5, Stepaside House, Stepaside Ln, Stepaside Village, Dublin 18, Ireland",53.2468133,-6.2154884,DLR
2016,22/07/2016,535000,New,,"7 Dargle Dr, Rathfarnham, Dublin 16, D16 EC60, Ireland",53.2854014,-6.2705098,DLR
2014,28/07/2014,82733,New,,"1 Beau Park Ave, Donaghmede, Dublin, Ireland",53.4023539,-6.1529721,Dublin City
2015,16/06/2015,163000,New,,"167 Rusheeney Grove, Rusheeney Village, Dublin 15, D15 X4E2, Ireland",53.3977025,-6.4224882,Fingal
2014,27/06/2014,1460000,New,,"39 Carysfort Ave, Blackrock, Co. Dublin, A94 C6P0, Ireland",53.2996394,-6.179796,DLR
2016,02/09/2016,440000,New,,"Apartment 1, The Lighthouse, The Crescent, Robswalls, Malahide, Co. Dublin, Ireland",53.4444758,-6.1310797,Fingal
2015,11/03/2015,267000,New,,"28 Cloyne Rd, Crumlin, Dublin 12, D12 E7Y5, Ireland",53.3185296,-6.2953203,Dublin City
2016,04/08/2016,280000,New,,"6, Littlewood, Belarmine Ave, Belarmine, Dublin 18, Ireland",53.258456,-6.2213235,DLR
2012,01/03/2012,310000,New,,"Harbour Square, Crofton Rd, DÃƒÂºn Laoghaire, Dublin, Ireland",53.2944933,-6.1358138,DLR
2017,13/04/2017,252000,New,,"57 Granitefield, DÃŒÂ¼n Laoghaire, Dublin, A96 F8R2, Ireland",53.2683273,-6.1412098,DLR
2015,22/10/2015,118000,New,,"Dublin, Ireland",53.3498053,-6.2603097,Dublin City
2013,12/06/2013,420000,New,,"10 N Circular Rd, Arran Quay, Dublin 7, D07 CX4E, Ireland",53.3523217,-6.2974201,Dublin City
2016,15/09/2016,198000,New,,"Blackhall Square, SrÃƒÂ¡id an RÃƒÂ­ Thuaidh, Smithfield, Dublin 7, Ireland",53.3500838,-6.2805277,Dublin City
2015,08/04/2015,135250,New,,"Mountain View, Sundale Park, Jobstown, Dublin 24, Ireland",53.2818212,-6.4095869,South Dublin
2015,09/12/2015,285000,New,,"9 Crannagh Road, Rathfarnham, Dublin 14, D14 F860, Ireland",53.3010927,-6.2799878,South Dublin
2015,21/07/2015,341000,New,,"19 Beechdale Cres, Oldcourt, Dublin 24, D24 T928, Ireland",53.2700347,-6.3377829,South Dublin
2013,07/08/2013,270000,New,,"6 Corbawn Lawn, Shankill, Dublin 18, D18 F6P0, Ireland",53.2336925,-6.1148977,DLR
2017,17/01/2017,397500,New,,"5 Brookville Park, Malahide Rd, Beaumont, Dublin 5, D05 FH39, Ireland",53.3843013,-6.2037142,Dublin City
2012,09/03/2012,140925,New,,"Inchicore, Dublin, Ireland",53.3349744,-6.3320547,Dublin City
2012,12/12/2012,220000,New,,"Richmond Rd, Drumcondra South, Dublin, Co. Dublin, Ireland",53.3659397,-6.2481358,Dublin City
2014,08/09/2014,77000,New,,"Dublin, Ireland",53.3498053,-6.2603097,Dublin City
2016,12/09/2016,710000,New,,"38 Collegewood, Castleknock, Dublin 15, D15 A6F5, Ireland",53.37264,-6.3688306,Fingal
2013,13/12/2013,246000,New,,"9 Montrose Ct, Beaumont, Dublin 5, D05 R761, Ireland",53.3856335,-6.2230359,Dublin City
2014,27/02/2014,168000,New,,"16 Warrenstown Way, Buzzardstown, Dublin 15, D15 E2N5, Ireland",53.4021898,-6.385713,Fingal
2015,01/10/2015,150000,New,,"45 Ashfield Rise, Tankardstown, Balbriggan, Co. Dublin, K32 TK30, Ireland",53.6145519,-6.195564,Fingal
2016,29/07/2016,525000,New,,"12 Cooldrinagh Ln, Cooldrinagh, Co. Dublin, Ireland",53.3576895,-6.4814862,South Dublin
2016,16/03/2016,115000,New,,"2 Parkhill Lawn, Kilnamanagh, Dublin 24, D24 Y9CK, Ireland",53.3024769,-6.3665813,South Dublin
2013,22/08/2013,145000,New,,"20 Ridgewood Square, Ridgewood, Swords, Co. Dublin, K67 Y298, Ireland",53.4470342,-6.2492357,Fingal
2016,25/11/2016,1010000,New,,"107 Georgian Village, Castleknock, Dublin 15, D15 NDW9, Ireland",53.3697842,-6.3585169,Fingal
2015,24/07/2015,525000,New,,"34 Woodley Park, Kilmacud, Dublin 14, D14 XA44, Ireland",53.2871177,-6.2229684,DLR
2012,04/12/2012,275000,New,,"Stillorgan Rd, Galloping Green North, Dublin, Ireland",53.2813863,-6.1921045,DLR
2014,20/10/2014,231000,New,,"34 Gulistan Cottages, Dublin 6, D06 N4C0, Ireland",53.3245913,-6.2628823,Dublin City
2016,20/06/2016,385000,New,,"31 Castle Lawns, Sandyford, Dublin 18, D18 XW20, Ireland",53.2610393,-6.2086422,DLR
2014,16/09/2014,395000,New,,"76 St Magdalen Terrace, Stella Gardens, Dublin 4, D04 V045, Ireland",53.3394158,-6.2254645,Dublin City
2014,06/05/2014,1650000,New,,"58 Palmerston Rd, Dublin 6, D06 K3V2, Ireland",53.3176639,-6.2586327,Dublin City
2015,07/10/2015,847500,New,,"11 Tivoli Terrace E, DÃƒÂºn Laoghaire, Dublin, A96 YX75, Ireland",53.2897878,-6.1395751,DLR
2017,13/04/2017,308370,New,greater than or equal to 38 sq metres and less than 125 sq metres,"Honeypark, DÃŒÂ¼n Laoghaire, Co. Dublin, Ireland",53.2804207,-6.143294,DLR
2013,31/07/2013,220000,New,,"Poddle Park House, Kimmage Rd Lower, Kimmage, Dublin 6W, Co. Dublin, Ireland",53.3126376,-6.2981771,Dublin City
2015,30/10/2015,1595000,New,,"81 Tritonville Rd, Dublin 4, D04 XP86, Ireland",53.3344958,-6.2221346,Dublin City
2012,01/11/2012,132000,New,,"Apartment 87, The Belfry, Belarmine Ave, Belarmine, Dublin 18, Ireland",53.2608182,-6.2246101,DLR
2014,15/10/2014,195000,New,,"29 Finglas Pl, Finglas East, Dublin 11, D11 P3V8, Ireland",53.3859354,-6.2949442,Dublin City
2012,10/12/2012,207500,New,,"61 The Grove, Woodbrook Glen, Bray, Co. Dublin, A98 D4E8, Ireland",53.2129314,-6.1102979,DLR
2016,17/02/2016,141481,New,,"Elm Park Service Station, 196 Merrion Rd, Dublin 4, D04 Y8V0, Ireland",53.3137958,-6.2074132,Dublin City
2015,21/07/2015,235000,New,,"Dublin, Ireland",53.3498053,-6.2603097,Dublin City
2015,18/12/2015,95000,New,,"119 Rialto Cottages, Rialto, Dublin 8, D08 VK5W, Ireland",53.3364582,-6.2975918,Dublin City
2015,21/12/2015,176211,New,greater than or equal to 38 sq metres and less than 125 sq metres,"Ridge Hall, BÃƒÂ³thar SheangÃƒÂ¡naÃƒÂ­, Glenageary, Ballybrack, Co. Dublin, Ireland",53.251536,-6.1238534,DLR
2015,27/10/2015,21000,New,,"15 Briarfield Rd, Donaghmede, Dublin 5, D05 FX23, Ireland",53.3868905,-6.1614649,Dublin City
2016,17/02/2016,125036,New,,"Elm Park Service Station, 196 Merrion Rd, Dublin 4, D04 Y8V0, Ireland",53.3137958,-6.2074132,Dublin City
2015,27/03/2015,200000,New,,"57 Prussia St, Stoneybatter, Dublin 7, D07 W9P7, Ireland",53.3557595,-6.2879172,Dublin City
2015,23/11/2015,86666,New,,"14-19 Orchard Square, Farranboley, Clonskeagh, Co. Dublin, Ireland",53.3062439,-6.2396653,DLR
2012,01/12/2012,970000,New,,"1A Albert Rd Lower, Glenageary, Dublin, A96 A3T9, Ireland",53.2854277,-6.1192077,DLR
2015,12/11/2015,293000,New,,"13 Shanard Rd, Whitehall, Dublin 9, D09 F2D0, Ireland",53.3906133,-6.2554365,Dublin City
2014,31/03/2014,565000,New,,"39 Shanganagh Vale, Dublin, Ireland",53.2514003,-6.1398964,DLR
2014,30/08/2014,420000,New,,"22 Blackthorn Green, Blackthorn, Dublin 16, D16 FX97, Ireland",53.2754867,-6.2260888,DLR
2014,08/09/2014,358975,New,greater than or equal to 38 sq metres and less than 125 sq metres,"George's Pl, DÃƒÂºn Laoghaire, Dublin, Ireland",53.294986,-6.1399599,DLR
2014,27/11/2014,1350000,New,,"34 Rathdown Park, Terenure, Dublin 6W, Co. Dublin, D6W AP22, Ireland",53.3056727,-6.2857733,Dublin City
2016,27/07/2016,195000,New,,"14 Westbourne Dr, Deansrath, Dublin 22, D22 C5T8, Ireland",53.3227116,-6.4197207,South Dublin
2012,04/05/2012,295000,New,,"24, Woodview, Mount Merrion Ave, Blackrock, Co. Dublin, Ireland",53.2998605,-6.1882335,DLR
2015,14/08/2015,540000,New,greater than or equal to 38 sq metres and less than 125 sq metres,"163 Castlemoyne, Snugborough, Dublin, Ireland",53.4102203,-6.1666151,Fingal
2016,28/11/2016,269000,New,,"13 Latchford Green, Castaheany, Clonee, Co. Dublin, D15 W3K1, Ireland",53.397756,-6.4330146,Fingal
2014,07/10/2014,327329,New,greater than or equal to 38 sq metres and less than 125 sq metres,"Sandyford, Dublin, Ireland",53.2719967,-6.2207197,DLR
2015,03/09/2015,279500,New,,"60 Woodview, Lucan, Co. Dublin, K78 A3H3, Ireland",53.3547094,-6.4617086,South Dublin
2017,12/01/2017,150000,New,,"3 Charlemont St, Saint Kevin's, Dublin 2, Ireland",53.3325058,-6.263356,Dublin City
2015,23/11/2015,250000,New,,"28 Ballintyre Square, Ballinteer Ave, Stillorgan, DÃƒÂºn Laoghaire, Co. Dublin, Ireland",53.273958,-6.255866,DLR
2014,17/07/2014,410000,New,,"Wilfield House, Sandymount Ave, Dublin 4, Ireland",53.3288157,-6.2185662,Dublin City
2013,28/02/2013,487500,New,,"13 Hillcourt Rd, Dublin, Ireland",53.2754959,-6.1289857,DLR
2015,09/01/2015,219000,New,,"20 Seafield Ct, Rush, Co. Dublin, K56 VH27, Ireland",53.5225905,-6.0847884,Fingal
2014,02/05/2014,340000,New,,"12 Brookwood Cres, Harmonstown, Dublin 5, D05 Y407, Ireland",53.3804538,-6.1933184,Dublin City
2014,10/02/2014,99915,New,greater than or equal to 38 sq metres and less than 125 sq metres,"34, The Garden House, Waterfall Ave, Fairview, Dublin 3, Ireland",53.3666241,-6.2481642,Dublin City
2016,14/12/2016,281000,New,,"Citywest, Westbrook Lawns, Gibbons, Dublin, Co. Dublin, Ireland",53.277158,-6.4188231,South Dublin
2016,14/09/2016,277532,New,greater than or equal to 38 sq metres and less than 125 sq metres,"Carpenterstown Road, Carpenterstown, Castleknock, Co. Dublin, Ireland",53.372572,-6.3770713,Fingal
2016,04/11/2016,295000,New,,"Parkview, Robswalls, Malahide, Co. Dublin, Ireland",53.4441266,-6.1357762,Fingal
2017,19/05/2017,550661,New,greater than or equal to 38 sq metres and less than 125 sq metres,"Hersil Wood, Dublin 16, Knocklyon Rd, Knocklyon, Co. Dublin, Ireland",53.2882652,-6.3103416,South Dublin
2015,08/05/2015,370000,New,,"Wyckham Point, Wyckham Way, Balally, Dublin 16, D16 P640, Ireland",53.2804439,-6.2433444,DLR
2013,26/05/2013,650000,New,,"27 Ashdale Rd, Terenure, Dublin 6W, Co. Dublin, D6W A365, Ireland",53.313802,-6.2856107,Dublin City
2015,12/06/2015,117794,New,,"4 Wheatfields Cres, Collinstown, Dublin 22, D22 AE19, Ireland",53.3425443,-6.3920481,South Dublin
2015,20/08/2015,265751,New,,"21 Findlater St, Sandycove, Dublin, A96 VX68, Ireland",53.2854514,-6.1271001,DLR
2015,18/09/2015,370100,New,greater than 125 sq metres,"Stepaside, Co. Dublin, Ireland",53.2530164,-6.2143331,DLR
2016,28/10/2016,264317,New,greater than or equal to 38 sq metres and less than 125 sq metres,"Belltree Avenue, Donaghmede, Dublin, Ireland",53.4065193,-6.1564006,Dublin City
2015,15/04/2015,268329,New,greater than or equal to 38 sq metres and less than 125 sq metres,"Stillorgan Rd, Dublin, Ireland",53.29624,-6.2038961,DLR
2013,15/05/2013,295000,New,,"Marlay View, Ballinteer Ave, Ballinteer, Dublin 16, Ireland",53.2739248,-6.2587806,DLR
2015,31/07/2015,220000,New,,"Cumberland Row, Britain Pl, Rotunda, Dublin 1, Ireland",53.3530144,-6.2582724,Dublin City
2016,08/01/2016,175000,New,,"Priors Gate, Greenhills Rd Ext, Tallaght, Dublin 24, Ireland",53.2874624,-6.3563775,South Dublin
2012,06/06/2012,391500,New,,"256 Griffith Ave, Whitehall, Dublin, Ireland",53.3760536,-6.2512329,Dublin City
2012,29/11/2012,255000,New,,"62 Annadale Cres, Drumcondra, Dublin 9, Ireland",53.3715128,-6.2404956,Dublin City
2014,07/10/2014,288528,New,greater than or equal to 38 sq metres and less than 125 sq metres,"Sandyford, Dublin, Ireland",53.2719967,-6.2207197,DLR
2014,22/12/2014,148750,New,,"Kill Ave, Dublin, Ireland",53.2818472,-6.1522481,DLR
2016,06/04/2016,280000,New,,"41 Tymon Cres, Oldbawn, Dublin 24, D24 V20T, Ireland",53.2776498,-6.3658232,South Dublin
2013,30/08/2013,260000,New,,"27 Springlawn Heights, Blanchardstown, Dublin 15, D15 DXN1, Ireland",53.3906549,-6.3826035,Fingal
2016,18/08/2016,476000,New,,"The Sweepstakes, Ballsbridge Park, Merrion Rd, Dublin 4, Ireland",53.3315191,-6.2282866,Dublin City
2015,11/08/2015,80000,New,,"306A Kimmage Rd Lower, Kimmage, Dublin 6W, Co. Dublin, D6W PP82, Ireland",53.3147962,-6.295722,Dublin City
2015,14/04/2015,265000,New,,"Dublin, Ireland",53.3498053,-6.2603097,Dublin City
2013,05/12/2013,220000,New,,"73 Brian Ave, Clontarf West, Dublin 3, D03 W5P2, Ireland",53.3695234,-6.2338782,Dublin City
2015,03/09/2015,270000,New,,"7 The Park, Pheasant Run, Clonee, Co. Dublin, D15 A72P, Ireland",53.4053088,-6.4189723,Fingal
2016,29/07/2016,315000,New,,"21 Shantalla Ave, Beaumont, Dublin 9, D09 AH34, Ireland",53.3888161,-6.2369567,Dublin City
2012,13/03/2012,165000,New,,"23 Ashfield Way, Tankardstown, Balbriggan, Co. Dublin, K32 W020, Ireland",53.6137088,-6.1960783,Fingal
2013,11/12/2013,281000,New,,"3 Sycamore Dr, Garranswood, Dublin 24, D24 ARW8, Ireland",53.3052358,-6.3655276,South Dublin
2013,20/08/2013,220000,New,,"16, Saint Lawrence Quay, Harbour Rd, Howth, Dublin, Ireland",53.3876763,-6.0682486,Fingal
2015,25/09/2015,1435000,New,,"6 Dartry Park, Dartry, Dublin 6, D06 X967, Ireland",53.3102442,-6.2601863,Dublin City
2013,25/11/2013,220000,New,greater than or equal to 38 sq metres and less than 125 sq metres,"Dublin, Ireland",53.3498053,-6.2603097,Dublin City
2014,19/12/2014,225000,New,,"2 Thornleigh Pl, Thornleigh, Swords, Co. Dublin, K67 D580, Ireland",53.4716648,-6.2309716,Fingal
2015,19/05/2015,226000,New,,"Blessington Rd, Tallaght, Dublin, Ireland",53.2894784,-6.3658966,South Dublin
2012,30/08/2012,156829,New,greater than or equal to 38 sq metres and less than 125 sq metres,"Cedar Pl, Ridgewood, Swords, Co. Dublin, Ireland",53.4481791,-6.2449745,Fingal
2013,16/08/2013,170000,New,,"16 St Donagh's Park, Donaghmede, Dublin 13, D13 Y0H9, Ireland",53.3908629,-6.1580914,Dublin City
2013,04/10/2013,118000,New,,"5 Station Rd, Lough Common, Lusk, Co. Dublin, Ireland",53.5248426,-6.1629499,Fingal
2013,06/09/2013,655000,New,,"453 Strand Rd, Carrickhill, Portmarnock, Co. Dublin, D13 HX23, Ireland",53.4306309,-6.1267629,Fingal
2015,12/08/2015,145000,New,,"19 Arbour Pl, Arbour Hill, Dublin 7, D07 XF7K, Ireland",53.3501028,-6.2834911,Dublin City
2015,13/10/2015,310000,New,,"13 Beaverstown Rd, Lambourne Park, Ballisk Common, Donabate, Co. Dublin, K36 Y206, Ireland",53.4931285,-6.1463094,Fingal
2012,20/07/2012,135000,New,,"25 Ladycove, Rush Demesne, Rush, Co. Dublin, Ireland",53.5314353,-6.0921713,Fingal
2014,28/10/2014,222500,New,,"Harmac Court, Brighton Ave, Terenure, Dublin 6, Ireland",53.3167038,-6.2790636,Dublin City
2016,28/10/2016,235000,New,,"36 Castle Dr, Swords Demesne, Swords, Co. Dublin, K67 A375, Ireland",53.4568408,-6.2164884,Fingal
2016,25/10/2016,246696,New,greater than or equal to 38 sq metres and less than 125 sq metres,"15 Deerpark Pl, Kiltipper, Dublin 24, Ireland",53.2692489,-6.3752745,South Dublin
2015,17/12/2015,86000,New,,"Apartment 10, The Laurels, Harbour Rd, Balbriggan, Co. Dublin, Ireland",53.6106714,-6.1793539,Fingal
2015,27/11/2015,242000,New,,"29 Glenview Park, Tallaght, Dublin 24, D24 T4AT, Ireland",53.2889353,-6.3454487,South Dublin
2013,09/05/2013,109855,New,greater than or equal to 38 sq metres and less than 125 sq metres,"32 Stratton Walk, Finnstown, Lucan, Co. Dublin, Ireland",53.3381813,-6.4634868,South Dublin
2014,02/12/2014,355000,New,,"Dublin, Ireland",53.3498053,-6.2603097,Dublin City
2015,09/02/2015,262000,New,,"Apartment 4, Churchview, Glenalbyn Rd, Stillorgan, Dublin, Ireland",53.2865299,-6.1949296,DLR
2015,18/12/2015,275000,New,,"Apartment 14 The Hibernian, The Hibernian, The Gasworks, S Lotts Rd, Dublin 4, Ireland",53.3391022,-6.2356174,Dublin City
2016,15/02/2016,176666,New,,"The Steeples, St Laurence's Rd, Chapelizod, Dublin 20, Ireland",53.3429203,-6.3394672,Dublin City
2017,13/02/2017,191000,New,,"60 Drumfinn Ave, Drumfinn, Dublin 10, D10 A099, Ireland",53.3449883,-6.3634089,Dublin City
2014,06/11/2014,250000,New,,"2 Brookvale, Esker North, Lucan, Co. Dublin, K78 FW42, Ireland",53.3563778,-6.4461474,South Dublin
2015,04/02/2015,131835,New,greater than or equal to 38 sq metres and less than 125 sq metres,"Ashtown, Dublin, Ireland",53.3678093,-6.3181386,Dublin City
2017,23/03/2017,875000,New,,"21 Riverside Dr, Newtown Little, Dublin, Ireland",53.3015763,-6.2684677,DLR
2015,18/03/2015,207500,New,,"13 Allendale Rise, Clonsilla, Dublin 15, D15 X6E8, Ireland",53.3928393,-6.4274443,Fingal
2015,22/07/2015,142500,New,,"14 Wellmount Green, Finglas West, Dublin 11, D11 C5R7, Ireland",53.385165,-6.3093521,Dublin City
2017,13/04/2017,308370,New,greater than or equal to 38 sq metres and less than 125 sq metres,"Honeypark, DÃŒÂ¼n Laoghaire, Co. Dublin, Ireland",53.2804207,-6.143294,DLR
2013,20/12/2013,8000,New,greater than or equal to 38 sq metres and less than 125 sq metres,"Apartment 57, Rosanule, Phoenix Park Ave, Phoenix Park Racecourse, Dublin 15, Ireland",53.3727265,-6.3393014,Fingal
2016,29/04/2016,790000,New,,"28 Avondale Ct, Rockfield, Blackrock, Co. Dublin, A94 A8X9, Ireland",53.2941735,-6.1759813,DLR
2016,29/07/2016,650000,New,greater than or equal to 38 sq metres and less than 125 sq metres,"6 Percy French Rd, Walkinstown, Dublin 12, D12 X2T2, Ireland",53.3189128,-6.3225559,Dublin City
2015,25/08/2015,145375,New,greater than or equal to 38 sq metres and less than 125 sq metres,"26 Slade Castle Ave, Moneyatta Commons, Co. Dublin, Ireland",53.2787163,-6.4458901,South Dublin
2013,26/08/2013,540000,New,,"27 Clonkeen Dr, Kill of the Grange, Dublin 18, D18 R9Y9, Ireland",53.2762919,-6.1642383,DLR
2015,07/08/2015,255000,New,,"44 North St, Townparks, Swords, Co. Dublin, Ireland",53.4615829,-6.2185017,Fingal
2015,06/11/2015,142000,New,,"Hazelhatch Rd, Ireland",53.3189915,-6.519806,South Dublin
2017,15/06/2017,895000,New,,"2 Roebuck Ave, Merrion, Dublin, Ireland",53.2994091,-6.2054494,DLR
2016,04/11/2016,345000,New,,"17 Beechfield Rd, Walkinstown, Dublin 12, D12 K7W2, Ireland",53.3163587,-6.3284329,South Dublin
2013,14/06/2013,725000,New,,"61 Blackheath Park, Clontarf East, Dublin 3, D03 RW73, Ireland",53.3660341,-6.1990987,Dublin City
2016,14/10/2016,235000,New,,"4 Faiche Bhaile BhailcÃƒÂ­n, Baile BhailcÃƒÂ­n, Dublin 12, D12 X3NE, Ireland",53.3217471,-6.3356296,Dublin City
2016,18/05/2016,240000,New,greater than or equal to 38 sq metres and less than 125 sq metres,"36 Castlegrange Ave, Castaheany, Dublin, Ireland",53.3993558,-6.4301994,Fingal
2016,22/02/2016,170000,New,,"Kenilworth Manor, BÃƒÂ³thar Chrois Araild, Harold's Cross, Dublin 6W, Co. Dublin, Ireland",53.3176282,-6.2809057,Dublin City
2012,25/07/2012,330000,New,,"21 Glandore Park, DÃƒÂºn Laoghaire, Dublin, A96 XY46, Ireland",53.2872648,-6.1485067,DLR
2014,22/12/2014,247319,New,,"11 Brookside Gardens, Rush, Co. Dublin, K56 TY20, Ireland",53.5230892,-6.1037471,Fingal
2015,01/12/2015,188500,New,,"Apartment 1, Goldstone Court, Clogher Rd, Crumlin, Dublin 12, Ireland",53.3265533,-6.291115,Dublin City
2015,14/01/2015,620000,New,,"68 Riverside Dr, Rathfarnham, Dublin 14, D14 AY92, Ireland",53.2993316,-6.2694008,DLR
2013,18/02/2013,323750,New,,"145 Griffith Ave, Whitehall, Dublin, Ireland",53.3752597,-6.248295,Dublin City
2016,11/02/2016,240000,New,,"Grace Park Rd, Whitehall, Dublin 9, Ireland",53.3760309,-6.244823,Dublin City
2016,12/08/2016,316000,New,,"31 Conquer Hill Rd, Clontarf East, Dublin 3, D03 T6E5, Ireland",53.3602122,-6.1902762,Dublin City
2013,22/07/2013,101321,New,greater than or equal to 38 sq metres and less than 125 sq metres,"7 Chapel Cres, Riverston Abbey, Dublin 7, D07 ED32, Ireland",53.3726866,-6.3108892,Dublin City
2014,09/05/2014,125000,New,,"The Printworks, Essex St E, Dublin 2, Ireland",53.3453718,-6.2645577,Dublin City
2014,24/10/2014,192000,New,,"8 Northway Estate, Finglas West, Dublin 11, D11 DR53, Ireland",53.399288,-6.3121977,Dublin City
2013,23/12/2013,190000,New,,"6 Westpark Dr, Ballygall, Dublin 11, D11 YC3R, Ireland",53.3811342,-6.2751192,Dublin City
2015,18/12/2015,223000,New,,"N Great George's St, Rotunda, Dublin, Co. Dublin, Ireland",53.3547123,-6.2610291,Dublin City
2013,22/07/2013,265000,New,,"Donore Ave, Dublin, Co. Dublin, Ireland",53.3336364,-6.2830619,Dublin City
2014,28/08/2014,1145000,New,,"49 St Helen's Rd, Merrion, Dublin, Ireland",53.3080942,-6.2013945,DLR
2016,13/01/2016,528634,New,greater than 125 sq metres,"Grange Manor, Harold's Grange Rd, Rathfarnham, Dublin 16, Ireland",53.2681228,-6.2595665,DLR
2015,04/02/2015,131835,New,greater than or equal to 38 sq metres and less than 125 sq metres,"Ashtown, Dublin, Ireland",53.3678093,-6.3181386,Dublin City
2016,16/09/2016,245000,New,,"86 Mourne Rd, Crumlin, Dublin 12, D12 VH99, Ireland",53.3293386,-6.3268551,Dublin City
2013,30/12/2013,100000,New,,"McKee Ave, Finglas North, Dublin, Ireland",53.3937668,-6.3008925,Dublin City
2016,17/02/2016,275000,New,,"33 Shanliss Park, Whitehall, Dublin 9, D09 A038, Ireland",53.3906711,-6.2491034,Dublin City
2013,18/07/2013,515000,New,,"7 Harold's Cross Rd, Harold's Cross, Dublin 6W, Co. Dublin, D6W YH68, Ireland",53.3293536,-6.2754129,Dublin City
2017,20/06/2017,335000,New,,"Apartment 8, Temple Hall, Milltown Ave, Mount St Annes, Dublin 6, Ireland",53.312273,-6.2491832,Dublin City
2014,09/12/2014,246000,New,,"5 The Avenue, Melrose Park, Swords, Co. Dublin, K67 WV38, Ireland",53.4458601,-6.2060835,Fingal
2014,05/02/2014,222000,New,,"Stradbrook Rd, Blackrock, Co. Dublin, Ireland",53.290261,-6.1656436,DLR
2015,06/02/2015,165000,New,,"3 Windmill Way, Garristown, Co. Dublin, A42 N821, Ireland",53.5640899,-6.3851295,Fingal
2016,20/07/2016,400000,New,,"Spencer Dock, North Dock, Dublin, Ireland",53.3500825,-6.2386855,Dublin City
2014,05/12/2014,218465,New,greater than or equal to 38 sq metres and less than 125 sq metres,"59 The Paddocks View, Adamstown, Lucan, Co. Dublin, Ireland",53.3488346,-6.4639266,South Dublin
2017,22/06/2017,445000,New,,"9 Westbury Dr, Westbury Court, Lucan, Co. Dublin, K78 N9F6, Ireland",53.3463984,-6.4521547,South Dublin
2015,08/12/2015,2699000,New,,"Hawk Cliff, Vico Rd, Dalkey, Killiney, Co. Dublin, Ireland",53.2697547,-6.0983209,DLR
2015,21/04/2015,350000,New,,"2 Offington Ct, Howth Demesne, Dublin 13, D13 N2K5, Ireland",53.3827756,-6.0965785,Fingal
2017,03/03/2017,330396,New,greater than or equal to 38 sq metres and less than 125 sq metres,"Honeypark, DÃŒÂ¼n Laoghaire, Co. Dublin, Ireland",53.2804207,-6.143294,DLR
2014,07/10/2014,210925,New,greater than or equal to 38 sq metres and less than 125 sq metres,"601, The Cubes Offices Beacon South Quarter, Sandyford, Dublin 18, Ireland",53.2775885,-6.2155982,DLR
2017,13/04/2017,427313,New,greater than or equal to 38 sq metres and less than 125 sq metres,"Scholarstown Rd, Ballyroan, Dublin, Ireland",53.2793586,-6.3073067,South Dublin
2017,12/04/2017,250000,New,,"41 Balruddery Wood, Rosepark, Balrothery, Co. Dublin, K32 R230, Ireland",53.5827601,-6.1861292,Fingal
2016,17/08/2016,431514,New,greater than or equal to 38 sq metres and less than 125 sq metres,"33 Castleknock Way, Carpenterstown, Dublin 15, D15 HX24, Ireland",53.3758112,-6.3769491,Fingal
2014,22/12/2014,360000,New,,"1, 59 Blessington St, Inns Quay, Dublin 7, D07 W425, Ireland",53.3565049,-6.2676608,Dublin City
2015,21/05/2015,310000,New,,"30 Shandon Cres, Phibsborough, Dublin 7, D07 F5X6, Ireland",53.3649148,-6.2807456,Dublin City
2016,02/08/2016,665000,New,,"18 Tritonville Ave, Dublin 4, D04 K259, Ireland",53.3365966,-6.2192956,Dublin City
2014,07/10/2014,278828,New,greater than or equal to 38 sq metres and less than 125 sq metres,"408, The Cubes Offices Beacon South Quarter, Sandyford, Dublin 18, Ireland",53.2775885,-6.2155982,DLR
2014,09/12/2014,87669,New,greater than or equal to 38 sq metres and less than 125 sq metres,"Portland St N, Ballybough, Dublin, Ireland",53.3596158,-6.2562152,Dublin City
2017,30/01/2017,1150000,New,,"3 Newbridge Dr, Dublin 4, D04 YX08, Ireland",53.3351752,-6.2228945,Dublin City
2016,09/08/2016,290000,New,,"225 Grace Park Heights, Clontarf, Dublin 9, D09 V9K6, Ireland",53.3778098,-6.2356595,Dublin City
2016,02/12/2016,242290,New,greater than or equal to 38 sq metres and less than 125 sq metres,"15 Deerpark Pl, Kiltipper, Dublin 24, Ireland",53.2692489,-6.3752745,South Dublin
2015,30/01/2015,290000,New,,"22 The Paddocks Cres, Adamstown, Lucan, Co. Dublin, K78 VH74, Ireland",53.3481286,-6.4607542,South Dublin
2012,15/02/2012,543500,New,,"12 Stillorgan Park, Stillorgan, Dublin, A94 XV26, Ireland",53.2895193,-6.1830434,DLR
2014,03/10/2014,163683,New,,"Portland St N, Ballybough, Dublin, Ireland",53.3596158,-6.2562152,Dublin City
2016,15/07/2016,3075000,New,,"1 Richview Park, Dublin 6, Ireland",53.3122886,-6.2549991,Dublin City
2013,12/08/2013,215859,New,greater than 125 sq metres,"Newcastle, Co. Dublin, Ireland",53.2998135,-6.5010237,South Dublin
2016,19/09/2016,708000,New,,"28 Castle Grove, Clontarf East, Dublin 3, D03 PW57, Ireland",53.3692546,-6.2062848,Dublin City
2017,17/02/2017,165099,New,,"38 Manor Rd, Redcowfarm, Dublin 20, D20 WD25, Ireland",53.3514564,-6.368503,South Dublin
2014,30/05/2014,260000,New,,"Dublin, Ireland",53.3498053,-6.2603097,Dublin City
2017,28/02/2017,176000,New,,"Trimleston, Bremore, Balbriggan, Co. Dublin, Ireland",53.6143957,-6.2067527,Fingal
2015,06/03/2015,274950,New,,"30 Corke Abbey, Cork Great, Bray, Co. Dublin, A98 PC43, Ireland",53.2102104,-6.1141455,DLR
2014,25/06/2014,235272,New,,"Templeogue Rd, Bushy Park House, Templeogue, Dublin 6W, Co. Dublin, Ireland",53.30517,-6.29182,Dublin City
2017,20/02/2017,255000,New,,"33 Liffey Ave, Liffey Valley Park, Lucan, Co. Dublin, K78 XK22, Ireland",53.3504853,-6.4149738,South Dublin
2014,25/04/2014,472000,New,,"2 Wigan Rd, Drumcondra, Dublin, Ireland",53.3636178,-6.2672048,Dublin City
2016,19/09/2016,315000,New,,"25 Beechfield Heights, Castaheany, Clonee, Co. Dublin, D15 X6R7, Ireland",53.4010573,-6.4384395,Fingal
2015,04/02/2015,136240,New,greater than or equal to 38 sq metres and less than 125 sq metres,"Ashtown, Dublin, Ireland",53.3678093,-6.3181386,Dublin City
2015,21/12/2015,330000,New,,"2 The Walk, Skerries Rock Estate, Skerries, Co. Dublin, K34 HW42, Ireland",53.5784724,-6.1207864,Fingal
2017,31/03/2017,582000,New,,"33 Dollymount Park, Clontarf East, Dublin 3, D03 P984, Ireland",53.3640551,-6.181344,Dublin City
2016,02/12/2016,720000,New,,"Stanford, Harlech Grove, Ardilea, Dublin 14, Ireland",53.3003154,-6.2280041,DLR
2015,09/12/2015,445000,New,,"27 Castlebrook, Dundrum, Dublin, Ireland",53.2857593,-6.2441381,DLR
2015,06/11/2015,300735,New,greater than or equal to 38 sq metres and less than 125 sq metres,"Blanchardstown, Dublin, Ireland",53.3825381,-6.3644424,Fingal
2016,27/07/2016,322000,New,,"S Lotts Rd, Dublin 4, DUBLIN 4, Ireland",53.340803,-6.2311037,Dublin City
2014,25/06/2014,179598,New,,"Ballyboden Rd, Rathfarnham, Dublin, Ireland",53.2924833,-6.2885896,South Dublin
2013,12/06/2013,351000,New,,"16 Glenbourne Grove, Leopardstown Valley, Dublin 18, D18 T9H2, Ireland",53.2607968,-6.1970146,DLR
2015,21/01/2015,765000,New,,"13 Eglinton Terrace, Dublin 4, D04 F7K2, Ireland",53.3224339,-6.2347683,Dublin City
2014,24/02/2014,245000,New,,"43 Kenure Park, Rush, Co. Dublin, K56 PY77, Ireland",53.5271557,-6.0970692,Fingal
2017,10/05/2017,283000,New,,"62 Lismore Rd, Kimmage, Dublin 12, D12 V9P2, Ireland",53.3220139,-6.2978105,Dublin City
2014,03/10/2014,163683,New,,"Portland St N, Ballybough, Dublin, Ireland",53.3596158,-6.2562152,Dublin City
2015,22/09/2015,585000,New,,"79 Barclay Ct, Blackrock, Co. Dublin, A94 E8P7, Ireland",53.2984308,-6.1763722,DLR
2016,10/02/2016,435000,New,,"2 Village Gate, Dalkey, Co. Dublin, A96 YE89, Ireland",53.2755993,-6.1075304,DLR
2013,26/04/2013,280000,New,,"57 College Gate, Carpenterstown, Dublin 15, D15 XVC2, Ireland",53.374345,-6.3748633,Fingal
2014,19/11/2014,325000,New,,"12 Stoneview Pl, DÃƒÂºn Laoghaire, Dublin, A96 YE24, Ireland",53.2903435,-6.130589,DLR
2014,25/09/2014,135000,New,,"8 Broadstone Ave, Phibsborough, Dublin 7, D07 X3D0, Ireland",53.35613,-6.2730276,Dublin City
2014,26/05/2014,110000,New,,"5 Cloonmore Grove, Jobstown, Dublin 24, D24 K6RE, Ireland",53.2796096,-6.4010961,South Dublin
2013,22/08/2013,630000,New,,"8 Peck's Ln, Castleknock, Dublin 15, D15 ED32, Ireland",53.3738859,-6.3558648,Fingal
2017,10/05/2017,418502,New,greater than or equal to 38 sq metres and less than 125 sq metres,"2 Castleknock Ave, Blanchardstown, Dublin 15, D15 K283, Ireland",53.37882,-6.3713593,Fingal
2013,20/11/2013,1111490,New,,"Donnybrook, Co. Dublin, Ireland",53.3192586,-6.2320169,Dublin City
2014,03/07/2014,326000,New,,"38 Lorcan Ave, Whitehall, Dublin 9, D09 WY64, Ireland",53.3904239,-6.2381027,Dublin City
2016,11/11/2016,320000,New,,"43 Shanliss Way, Santry, Dublin 9, D09 DK22, Ireland",53.3958566,-6.2530998,Dublin City
2015,13/07/2015,718070,New,greater than 125 sq metres,"Sutton, Co. Dublin, Ireland",53.3895166,-6.1103064,Fingal
2014,03/11/2014,180000,New,,"41 Arklow St, Arbour Hill, Dublin 7, D07 W8C4, Ireland",53.3535717,-6.2917237,Dublin City
2012,05/03/2012,220264,New,greater than or equal to 38 sq metres and less than 125 sq metres,"257 Cruise Park Dr, Tyrrelstown, Dublin 15, D15 Y020, Ireland",53.4195825,-6.3942376,Fingal
2016,19/02/2016,320000,New,,"15 Parochial Ave, Baldoyle, Dublin 13, D13 N4A3, Ireland",53.3974313,-6.1273127,Fingal
2015,28/01/2015,252313,New,,"Sandyford, Dublin, Ireland",53.2719967,-6.2207197,DLR
2014,16/01/2014,53625,New,,"6 Mulroy Rd, Cabra West, Dublin 7, D07 AX84, Ireland",53.3676047,-6.2920936,Dublin City
2013,03/07/2013,162500,New,,"Dublin, Ireland",53.3498053,-6.2603097,Dublin City
2016,11/07/2016,242291,New,greater than or equal to 38 sq metres and less than 125 sq metres,"15 Deerpark Pl, Kiltipper, Dublin 24, Ireland",53.2692489,-6.3752745,South Dublin
2017,24/02/2017,212500,New,,"9, Saint Fintan's, North St, Townparks, Swords, Co. Dublin, Ireland",53.4637057,-6.2178598,Fingal
2016,29/06/2016,244933,New,greater than or equal to 38 sq metres and less than 125 sq metres,"Carpenterstown Road, Carpenterstown, Castleknock, Co. Dublin, Ireland",53.372572,-6.3770713,Fingal
2012,15/06/2012,330000,New,,"26 Seapoint Ave, Seapoint, Blackrock, Co. Dublin, A94 A0D6, Ireland",53.298698,-6.1678492,DLR
2016,19/04/2016,1132500,New,,"3 Deerpark Cl, Ashtown, Dublin 15, D15 RHW4, Ireland",53.3728747,-6.3497993,Fingal
2015,20/01/2015,392000,New,,"Dublin, Ireland",53.3498053,-6.2603097,Dublin City
2012,19/11/2012,207048,New,greater than or equal to 38 sq metres and less than 125 sq metres,"1 Stocking Well Row, Stocking Wood Hall, Rathfarnham, Dublin 16, D16 T296, Ireland",53.2721683,-6.3189741,South Dublin
2015,12/06/2015,6000,New,,"1 Pembroke Park, Dublin 4, D04 HD74, Ireland",53.3275537,-6.2415356,Dublin City
2015,19/02/2015,1280000,New,,"Stillorgan Rd, Blackrock, Co. Dublin, Ireland",53.2966812,-6.2039626,DLR
2017,07/04/2017,217326,New,greater than or equal to 38 sq metres and less than 125 sq metres,"33 Glenageary Rd Upper, Honeypark, Dublin, Ireland",53.2827569,-6.141109,DLR
2015,24/12/2015,515000,New,,"1 Woodstown Park, Ballycullen, Dublin 16, D16 N7X6, Ireland",53.274486,-6.3277698,South Dublin
2015,19/03/2015,255000,New,greater than or equal to 38 sq metres and less than 125 sq metres,"147 Hampton Wood Ave, Hampton Wood, Dublin 11, Ireland",53.4051003,-6.2850292,Dublin City
2017,20/02/2017,248000,New,,"29 Clancy Ave, Finglas East, Dublin 11, D11 V2V8, Ireland",53.3932126,-6.2945999,Dublin City
2016,13/04/2016,320000,New,,"1A Riversdale Cres, Clondalkin, Dublin 22, D22 H6H0, Ireland",53.3252803,-6.3910549,South Dublin
2017,13/04/2017,308370,New,greater than or equal to 38 sq metres and less than 125 sq metres,"Honeypark, DÃŒÂ¼n Laoghaire, Co. Dublin, Ireland",53.2804207,-6.143294,DLR
2014,25/07/2014,198000,New,,"31 Meath St, Merchants Quay, Dublin 8, D08 N5X8, Ireland",53.3408311,-6.2785858,Dublin City
2014,05/08/2014,199000,New,,"11 The View, Millbrook Lawns, Dublin 24, D24 EAH1, Ireland",53.2818838,-6.3504096,South Dublin
2012,12/10/2012,150000,New,,"Avondale Mews, Park Ave, Dublin 4, Ireland",53.3271556,-6.2150648,Dublin City
2015,06/08/2015,550000,New,,"37 Calderwood Ave, Clontarf, Dublin 9, D09 T8K6, Ireland",53.3764807,-6.2384269,Dublin City
2014,17/09/2014,426000,New,,"10 Goldsmith St, Phibsborough, Dublin 7, D07 P2X6, Ireland",53.3598721,-6.2709258,Dublin City
2013,16/12/2013,1300000,New,,"57A South Hill, Dartry, Dublin 6, D06 YK58, Ireland",53.3099032,-6.2566872,Dublin City
2016,30/03/2016,200000,New,,"12 Stradbrook Grove, Mountashton, Blackrock, Co. Dublin, A94 Y4A3, Ireland",53.290823,-6.1639266,DLR
2013,17/12/2013,127500,New,,"Apartment 31 The Elm, The Ash, Parkview, Belarmine, Dublin 18, Ireland",53.260054,-6.2223072,DLR
2012,05/03/2012,220264,New,greater than or equal to 38 sq metres and less than 125 sq metres,"4 Cruise Park Walk, Tyrrelstown, Dublin 15, D15 K5HV, Ireland",53.418965,-6.3924167,Fingal
2015,23/03/2015,74000,New,,"The Exchange, Belgard Square North, Cookstown, Dublin 24, Ireland",53.2899418,-6.3743677,South Dublin
2013,24/10/2013,1320000,New,,"6 Ardenza Terrace, Seapoint, Monkstown, Co. Dublin, A94 YD21, Ireland",53.2988648,-6.1662896,DLR
2015,03/02/2015,195000,New,,"9 Clonshaugh Green, Clonshagh, Dublin 17, D17 PH63, Ireland",53.4025016,-6.209056,Dublin City
2017,03/03/2017,242000,New,,"52 Hazelbury Park, Castaheany, Clonee, Co. Dublin, D15 N5Y6, Ireland",53.4000425,-6.4322845,Fingal
2015,26/06/2015,405286,New,greater than 125 sq metres,"Stepaside, Co. Dublin, Ireland",53.2530164,-6.2143331,DLR
2016,24/11/2016,150000,New,,"7 Smithfield, Arran Quay, Dublin, Ireland",53.3482415,-6.2779367,Dublin City
2012,28/09/2012,308370,New,greater than or equal to 38 sq metres and less than 125 sq metres,"Sandycove, Dublin, Ireland",53.285843,-6.1144403,DLR
2014,11/06/2014,280000,New,,"Winter Garden, Pearse St, Grand Canal Dock, Dublin 2, Ireland",53.3438923,-6.2439221,Dublin City
2015,15/04/2015,360000,New,,"12 Rockfield Ave, Dublin, Ireland",53.3086209,-6.3192273,South Dublin
2013,09/12/2013,833002,New,,"9 Richview Park, Dublin 6, D06 F436, Ireland",53.3126892,-6.2538931,Dublin City
2014,07/10/2014,288528,New,greater than or equal to 38 sq metres and less than 125 sq metres,"222, The Cubes Offices Beacon South Quarter, Sandyford, Dublin 18, Ireland",53.2775885,-6.2155982,DLR
2015,23/02/2015,430000,New,,"5 The Brambles, Townparks, Skerries, Co. Dublin, K34 AW82, Ireland",53.5776166,-6.1178402,Fingal
2016,03/05/2016,275000,New,,"32 Carraroe Ave, Grange, Dublin 13, D13 YK26, Ireland",53.3936026,-6.1699928,Dublin City
2015,10/04/2015,270000,New,greater than 125 sq metres,"Dublin, Ireland",53.3498053,-6.2603097,Dublin City
2012,23/08/2012,400000,New,,"37 Synge St, Saint Kevin's, Dublin, Ireland",53.3342542,-6.2669461,Dublin City
2016,22/08/2016,205000,New,,"12 Allendale Pl, Clonsilla, Dublin 15, D15 E1RH, Ireland",53.3911338,-6.4277397,Fingal
2016,20/10/2016,295000,New,greater than or equal to 38 sq metres and less than 125 sq metres,"6 Castlegrange Ave, Castaheany, Clonee, Co. Dublin, D15 A9WH, Ireland",53.3996437,-6.4306815,Fingal
2015,19/02/2015,204000,New,,"43 Glenealy Rd, Harold's Cross, Dublin 12, D12 H046, Ireland",53.3307758,-6.2899918,Dublin City
2016,26/02/2016,340000,New,,"40 Kilnamanagh Rd, Walkinstown, Dublin 12, D12 KT5X, Ireland",53.3207319,-6.3327351,Dublin City
2016,29/07/2016,230000,New,greater than or equal to 38 sq metres and less than 125 sq metres,"Glenamuck Rd, Kilternan, Co. Dun Laoghaire-Rathdown, DUBLIN 18, Ireland",53.24995,-6.179252,DLR
2014,28/10/2014,220000,New,,"1 Gortmore Rd, Finglas South, Dublin 11, D11 X0A3, Ireland",53.3799117,-6.2975712,Dublin City
2017,07/04/2017,216706,New,greater than or equal to 38 sq metres and less than 125 sq metres,"33 Glenageary Rd Upper, Honeypark, Dublin, Ireland",53.2827569,-6.141109,DLR
2013,17/12/2013,255000,New,,"47 Oakdale Park, Oldcourt, Dublin 24, D24 NX46, Ireland",53.2704676,-6.3395373,South Dublin
2014,16/12/2014,118942,New,,"7 Bremore Pastures Cres, Clogheder, Balbriggan, Co. Dublin, K32 TF76, Ireland",53.6116592,-6.2112411,Fingal
2012,20/11/2012,285000,New,,"Dublin, Ireland",53.3498053,-6.2603097,Dublin City
2017,26/04/2017,151000,New,,"8A Melrose Park, Clonburris Great, Dublin 22, D22 C9W4, Ireland",53.3264901,-6.419555,South Dublin
2017,23/02/2017,650000,New,,"39 Woodcliff Heights, Howth, Co. Dublin, D13 HN66, Ireland",53.3782402,-6.058803,Fingal
2017,24/05/2017,568000,New,,"205 Laraghcon, Lucan, Co. Dublin, K78 YP23, Ireland",53.3639795,-6.4489745,Fingal
2012,27/01/2012,50000,New,,"54 Lismore Rd, Crumlin, Dublin 12, D12 F4A8, Ireland",53.3221685,-6.29771,Dublin City
2014,14/02/2014,228560,New,,"103 The Thatch Rd, Whitehall, Dublin 9, D09 KR65, Ireland",53.3829167,-6.2379991,Dublin City
2015,12/11/2015,360000,New,,"Ballsbridge, Co. Dublin, Ireland",53.3288697,-6.2305235,Dublin City
2013,02/07/2013,368000,New,,"58 Castle Farm, Shankill, Dublin 18, D18 DC10, Ireland",53.2271533,-6.1211131,DLR
2015,05/06/2015,295000,New,,"Brabazon Hall, Ardee St, Merchants Quay, Dublin 8, Ireland",53.3391423,-6.2804451,Dublin City
2016,08/04/2016,320000,New,,"24 Collegewood, Castleknock, Dublin 15, D15 K3K7, Ireland",53.3717847,-6.3685609,Fingal
2015,06/01/2015,212000,New,,"Gleann Na RÃƒÂ­, Valley Ave, Tullyvale, Dublin 18, Ireland",53.2460471,-6.1427434,DLR
2014,18/12/2014,325110,New,greater than or equal to 38 sq metres and less than 125 sq metres,"Balbriggan, Co. Dublin, Ireland",53.6083194,-6.1820798,Fingal
2015,28/01/2015,252313,New,,"Sandyford, Dublin, Ireland",53.2719967,-6.2207197,DLR
2014,22/10/2014,475000,New,,"7 Beach Dr, Dublin 4, D04 K270, Ireland",53.335486,-6.2168088,Dublin City
2012,30/04/2012,415000,New,,"11 Avoca Rd, Carrysfort, Blackrock, Co. Dublin, A94 T3K7, Ireland",53.2941625,-6.1906037,DLR
2014,19/08/2014,260000,New,,"Dublin, Ireland",53.3498053,-6.2603097,Dublin City
2015,12/05/2015,390000,New,,"Charlemont, Griffith Ave, Grace Park, Dublin 9, Ireland",53.3753493,-6.2315685,Dublin City
2012,19/11/2012,210000,New,,"422 Collins Ave, Whitehall, Dublin 9, D09 C8N8, Ireland",53.3819701,-6.2423208,Dublin City
2013,04/12/2013,200000,New,,"475 Blackhorse Ave, Ashtown, Dublin 7, D07 P797, Ireland",53.3653151,-6.3201059,Dublin City
2016,30/03/2016,612000,New,,"140 Foxfield Grove, Raheny - Foxfield, Dublin 5, D05 N471, Ireland",53.3837531,-6.1630053,Dublin City
2014,11/12/2014,295000,New,,"30 The Dr, Melrose Park, Swords, Co. Dublin, K67 K7X4, Ireland",53.4469194,-6.207253,Fingal
2015,31/03/2015,135000,New,,"124 Castle Park, Tallaght, Dublin 24, D24 VAY9, Ireland",53.2911295,-6.3446611,South Dublin
2016,28/04/2016,310000,New,,"13 Grace Park Gardens, Drumcondra, Dublin 9, D09 VY59, Ireland",53.3684128,-6.2480925,Dublin City
2015,27/03/2015,185000,New,,"46 Avonbeg Rd, Tallaght, Dublin 24, D24 EFX6, Ireland",53.2858971,-6.3480153,South Dublin
2017,02/05/2017,770924,New,greater than or equal to 38 sq metres and less than 125 sq metres,"Heidelberg, Ardilea, Dublin 14, Ireland",53.2964673,-6.2273289,DLR
2017,03/03/2017,308370,New,greater than or equal to 38 sq metres and less than 125 sq metres,"Honeypark, DÃŒÂ¼n Laoghaire, Co. Dublin, Ireland",53.2804207,-6.143294,DLR
2013,16/04/2013,95000,New,greater than or equal to 38 sq metres and less than 125 sq metres,"St Donagh's Rd, Donaghmede, Dublin, Ireland",53.3916913,-6.1616047,Dublin City
2014,15/12/2014,325000,New,,"Dublin, Ireland",53.3498053,-6.2603097,Dublin City
2015,26/01/2015,700000,New,,"26 Coundon Ct, Killiney, Co. Dublin, A96 XE92, Ireland",53.2589689,-6.1258821,DLR
2016,22/03/2016,206000,New,,"29 Applewood Main St, Holybanks, Swords, Co. Dublin, Ireland",53.4703179,-6.2302039,Fingal
2014,07/10/2014,269127,New,greater than or equal to 38 sq metres and less than 125 sq metres,"601, The Cubes Offices Beacon South Quarter, Sandyford, Dublin 18, Ireland",53.2775885,-6.2155982,DLR
2015,09/12/2015,150000,New,,"Seven Oaks, Sarsfield Rd, Kilmainham, Dublin 10, Ireland",53.3415674,-6.32729,Dublin City
2016,18/08/2016,450000,New,,"512 Orwell Park Way, Templeogue, Dublin 6W, Co. Dublin, D6W W867, Ireland",53.3005989,-6.3173373,South Dublin
2017,28/03/2017,550000,New,,"8 Farmleigh Park, Farmleigh Woods, Dublin 15, D15 H5X7, Ireland",53.3684073,-6.3623564,Fingal
2015,05/10/2015,275000,New,,"291 Tonlegee Rd, Donaghmede, Dublin 5, D05 ER89, Ireland",53.3914519,-6.173432,Dublin City
2014,19/09/2014,235000,New,,"20 Botanic Rd, Botanic, Dublin 9, D09 W3K0, Ireland",53.3666366,-6.2711944,Dublin City
2015,14/08/2015,375000,New,,"313 Collinswood, Collins Ave, Beaumont, Dublin 9, D09 P0E0, Ireland",53.3823657,-6.2345286,Dublin City
2013,12/12/2013,220000,New,,"4 Swords Manor Grove, Windmill Lands, Swords, Co. Dublin, K67 Y2E2, Ireland",53.4600821,-6.244255,Fingal
2017,28/02/2017,491000,New,,"26 Woodstown Rise, Ballycullen, Dublin 16, D16 V660, Ireland",53.272738,-6.3240959,South Dublin
2015,21/07/2015,330000,New,greater than or equal to 38 sq metres and less than 125 sq metres,"Donabate, Co. Dublin, Ireland",53.4853365,-6.1504482,Fingal
2016,01/07/2016,197000,New,,"20 Erris Square, Abbotstown, Dublin, Ireland",53.3913104,-6.3673626,Fingal
2015,10/03/2015,193832,New,greater than or equal to 38 sq metres and less than 125 sq metres,"144 Hampton Wood Ave, Hampton Wood, Dublin 11, D11 K0F9, Ireland",53.4050824,-6.285567,Dublin City
2013,30/08/2013,323000,New,,"19 Estuary Rd, Yellow Walls, Malahide, Co. Dublin, K36 ND96, Ireland",53.4544003,-6.1814604,Fingal
2015,16/09/2015,188000,New,,"17 Dun Emer Ct, Lusk, Co. Dublin, K45 HE97, Ireland",53.5254475,-6.172714,Fingal
2015,17/09/2015,150000,New,,"Newcastle Rd, Lucan, Co. Dublin, Ireland",53.3449908,-6.4516701,South Dublin
2016,07/10/2016,815000,New,greater than or equal to 38 sq metres and less than 125 sq metres,"Embassy Court, Prince of Wales Terrace, Dublin 4, Ireland",53.3265,-6.2228237,Dublin City
2014,21/07/2014,413000,New,,"8 Alma Ct, Dublin 6, D06 PY24, Ireland",53.3255553,-6.259958,Dublin City
2012,04/05/2012,449950,New,,"Greygates, BÃƒÂ³thar Stigh Lorgan, Merrion, Blackrock, Co. Dublin, Ireland",53.297717,-6.2051407,DLR
2016,29/07/2016,455000,New,,"15 Brighton Green, Terenure, Dublin 6, D06 E528, Ireland",53.3140091,-6.2808111,Dublin City
2015,10/07/2015,575000,New,,"Tivoli Terrace E, Dublin, Ireland",53.2899504,-6.1398695,DLR
2016,15/01/2016,425000,New,,"14 The Green, Woodpark, Dublin 16, D16 W923, Ireland",53.2746811,-6.2474556,DLR
2015,15/05/2015,215000,New,,"8 Clanbrassil Street Lower, Merchants Quay, Dublin, Ireland",53.3355599,-6.273687,Dublin City
2013,11/07/2013,112000,New,,"130 Ashfield Rise, Tankardstown, Balbriggan, Co. Dublin, K32 YY09, Ireland",53.6144654,-6.1967034,Fingal
2016,13/10/2016,102511,New,,"Apartment 17, Cairnbrook Manor, Cairnbrook, Dublin 18, Ireland",53.2479193,-6.1797148,DLR
2016,28/01/2016,540000,New,,"10 Grange Manor Dr, Rathfarnham, Dublin 16, D16 T0A5, Ireland",53.2859719,-6.2740905,South Dublin
2015,15/07/2015,560000,New,,"Carysfort Ave, Dublin, Ireland",53.2930522,-6.1800499,DLR
2015,11/12/2015,555000,New,,"176 Foxrock Cl, Kill of the Grange, Dublin 18, D18 A5F6, Ireland",53.2786859,-6.165238,DLR
2015,30/09/2015,285000,New,,"7 Birchview Dr, Tymon North, Dublin 24, D24 F3X5, Ireland",53.2999998,-6.3561136,South Dublin
2015,02/06/2015,850000,New,,"4 Woodside, Clontarf East, Dublin 3, D03 HH94, Ireland",53.3690336,-6.1871686,Dublin City
2016,15/07/2016,570000,New,,"15 Percy Ln, Dublin 4, D04 C6P4, Ireland",53.3366471,-6.2401696,Dublin City
2014,03/10/2014,184092,New,,"Portland St N, Ballybough, Dublin, Ireland",53.3596158,-6.2562152,Dublin City
2015,28/09/2015,290748,New,greater than or equal to 38 sq metres and less than 125 sq metres,"Barnageeragh Cove, Skerries, Co. Dublin, Ireland",53.58443,-6.1342863,Fingal
2017,23/03/2017,392500,New,,"26 Kimmage Rd W, Royston, Kimmage, Dublin 12, D12 EE63, Ireland",53.314797,-6.3105124,Dublin City
2015,14/05/2015,280000,New,,"Tassagard Green, Garters Ln, Coldwater Commons, Saggart, Co. Dublin, Ireland",53.2813933,-6.4406691,South Dublin
2012,01/08/2012,155000,New,,"The Waterside Apartments, 20 Ringsend Rd, Grand Canal Dock, Dublin, Co. Dublin City, DUBLIN 4, Ireland",53.3426847,-6.2351487,Dublin City
2014,19/12/2014,295000,New,,"3 Phoenix Ct, Arbour Hill, Dublin 7, D07 A2K6, Ireland",53.3511621,-6.2895605,Dublin City
2014,14/11/2014,250000,New,,"20 Sullivan St, Arran Quay, Dublin 7, D07 C650, Ireland",53.3510477,-6.2965434,Dublin City
2014,30/10/2014,295000,New,,"14 Eden Grove, Ballisk Common, Donabate, Co. Dublin, Ireland",53.4931988,-6.1498247,Fingal
2016,19/02/2016,261650,New,,"3 Benburb St, Smithfield, Dublin 7, Ireland",53.3473222,-6.2804445,Dublin City
2015,31/03/2015,130000,New,,"Saint Peter's Court, Phibsborough Rd, Phibsborough, Dublin 7, Ireland",53.3598703,-6.2720961,Dublin City
2015,11/12/2015,275000,New,,"5 Hampton Wood Lawn, Hampton Wood, Dublin 11, D11 A210, Ireland",53.4042117,-6.2849116,Dublin City
2012,27/07/2012,355000,New,,"26 Sonesta, Malahide Demesne, Malahide, Co. Dublin, K36 T184, Ireland",53.4534018,-6.1652476,Fingal
2014,15/12/2014,265000,New,,"Castle Heath, Swords Rd, Yellow Walls, Malahide, Co. Dublin, Ireland",53.4469543,-6.1794395,Fingal
2015,20/05/2015,524229,New,greater than or equal to 38 sq metres and less than 125 sq metres,"Carpenterstown Road, Castleknock, Dublin, Ireland",53.3668103,-6.3707698,Fingal
2017,20/01/2017,286000,New,,"43 Brookdale Ave, Hilltown, Swords, Co. Dublin, K67 K7R6, Ireland",53.4512683,-6.2469417,Fingal
2015,19/03/2015,325000,New,,"2 Castlewood Terrace, Dublin 6, D06 E2K7, Ireland",53.3234145,-6.2637109,Dublin City
2012,27/07/2012,178854,New,greater than or equal to 38 sq metres and less than 125 sq metres,"505, Beacon South Quarter, Sandyford, Dublin 18, Ireland",53.277902,-6.2175132,DLR
2013,12/11/2013,267500,New,,"Clarinda Park W, Glasthule, Dublin, Ireland",53.2886851,-6.1327314,DLR
2015,14/12/2015,825000,New,,"286 Clontarf Rd, Clontarf East, Dublin 3, D03 H2K6, Ireland",53.359942,-6.1857991,Dublin City
2015,15/06/2015,86967,New,greater than or equal to 38 sq metres and less than 125 sq metres,"337, West Park Gate, BÃƒÂ³thar an tSeanbhÃƒÂ¡bhÃƒÂºin, Tallaght, Dublin 24, Ireland",53.2873796,-6.3625987,South Dublin
2014,01/08/2014,195000,New,,"3 Culmore Park, Redcowfarm, Dublin 20, D20 ET89, Ireland",53.3514419,-6.3661694,South Dublin
2014,22/07/2014,290000,New,,"32 Collins Park, Beaumont, Dublin 9, D09 Y6X7, Ireland",53.3778981,-6.222837,Dublin City
2014,29/09/2014,420000,New,,"Castleway Apartments, 1-9 Golden Ln, Dublin, Co. Dublin City, DUBLIN 8, Ireland",53.3407133,-6.2688589,Dublin City
2012,22/10/2012,270000,New,,"Corrcastle, Howth Rd, Howth, Dublin, Ireland",53.3899162,-6.094074,Fingal
2014,20/10/2014,530000,New,,"78 Carrick Ct, Burrow, Portmarnock, Co. Dublin, D13 CY22, Ireland",53.4239067,-6.1374006,Fingal
2014,23/06/2014,212000,New,,"12 Woodford Garth, Knockmitten, Dublin 22, D22 A3W5, Ireland",53.3231002,-6.3814148,South Dublin
2016,18/10/2016,250000,New,,"38 Churchwell Square, Belmayne, Dublin 13, D13 H276, Ireland",53.4060256,-6.1721207,Dublin City
2015,05/05/2015,620000,New,greater than 125 sq metres,"Wainsfort Manor Dr, College Square, Terenure, Dublin 6W, Co. Dublin, Ireland",53.3065353,-6.3111659,South Dublin
2016,07/04/2016,193516,New,,"City Square, Gloucester St S, Dublin 2, Ireland",53.3461183,-6.249453,Dublin City
2017,23/02/2017,788546,New,greater than or equal to 125 sq metres,"18 Killiney Rd, Dalkey, Dublin, Ireland",53.2727897,-6.1212687,DLR
2015,16/12/2015,650000,New,,"Coolmine, Co. Dublin, Ireland",53.2703259,-6.4716419,South Dublin
2016,24/05/2016,185000,New,,"8 Grange View Walk, Kilmahuddrick, Dublin 22, D22 KC61, Ireland",53.3251673,-6.4288114,South Dublin
2015,03/09/2015,420000,New,,"25 The Lawn, Boden Park, Dublin 16, D16 K8H2, Ireland",53.280931,-6.3068695,South Dublin
2012,06/07/2012,150000,New,,"Newcomen Court, N Strand Rd, North Strand, Dublin 3, Ireland",53.3574184,-6.2442033,Dublin City
2013,20/11/2013,110132,New,greater than or equal to 38 sq metres and less than 125 sq metres,"Red Arches Ave, The Coast, Dublin 13, Ireland",53.4015056,-6.1423886,Fingal
2015,15/06/2015,99433,New,greater than or equal to 38 sq metres and less than 125 sq metres,"356, West Park Gate, BÃƒÂ³thar an tSeanbhÃƒÂ¡bhÃƒÂºin, Tallaght, Dublin 24, Ireland",53.2873796,-6.3625987,South Dublin
2013,19/07/2013,210000,New,,"11 Lein Rd, Harmonstown, Dublin 5, D05 E972, Ireland",53.3815014,-6.1873929,Dublin City
2016,22/07/2016,227500,New,,"8 O'Leary Rd, Inchicore, Dublin 8, D08 H6T1, Ireland",53.3373495,-6.3086269,Dublin City
2016,18/05/2016,295000,New,greater than or equal to 38 sq metres and less than 125 sq metres,"30 Castlegrange Ave, Castaheany, Dublin, Ireland",53.3993558,-6.4301994,Fingal
2015,09/02/2015,263000,New,,"62 Harold's Cross Cottages, Harold's Cross, Dublin 6, D06 H722, Ireland",53.3282833,-6.2745699,Dublin City
2014,21/08/2014,420000,New,,"17 St Brigid's Park, Cornelscourt, Dublin 18, D18 V0F3, Ireland",53.2682751,-6.1702026,DLR
2012,19/09/2012,1595000,New,,"Woodlawn, Golf Ln, Torquay Rd, Foxrock, Dublin 18, Ireland",53.2713147,-6.1847088,DLR
2013,19/06/2013,502202,New,greater than 125 sq metres,"16 Claremount, Cabinteely, Dublin, Ireland",53.2612435,-6.1671943,DLR
2015,28/01/2015,252313,New,,"Sandyford, Dublin, Ireland",53.2719967,-6.2207197,DLR
2013,12/12/2013,275000,New,,"32 Park Drive Lawn, Castleknock, Dublin 15, D15 C795, Ireland",53.3768575,-6.366748,Fingal
2015,19/11/2015,467000,New,,"70 St Assam's Park, Raheny - St. Assam, Dublin 5, D05 A363, Ireland",53.3815498,-6.1650582,Dublin City
2015,05/06/2015,290749,New,greater than or equal to 38 sq metres and less than 125 sq metres,"Apartment 8, Temple Hall, Milltown Ave, Mount St Annes, Dublin 6, Ireland",53.312273,-6.2491832,Dublin City
2014,13/10/2014,226000,New,,"16 Earlsfort Vale, Balgaddy, Lucan, Co. Dublin, K78 A036, Ireland",53.3425416,-6.4154674,South Dublin
2014,09/10/2014,600000,New,,"34 Kincora Ave, Clontarf, Dublin 3, D03 X4H9, Ireland",53.3638893,-6.2113088,Dublin City
2015,08/04/2015,300000,New,,"Harbour Rd, DÃƒÂºn Laoghaire, Dublin, Ireland",53.2959736,-6.137019,DLR
2012,27/08/2012,400000,New,,"34 Woodside, Dodder Park Rd, Rathfarnham, Dublin 14, D14 P8C7, Ireland",53.3020356,-6.2742527,South Dublin
2015,04/12/2015,295000,New,,"29 Willie Nolan Rd, Baldoyle, Dublin 13, D13 K0T2, Ireland",53.3971129,-6.1342874,Fingal
2017,09/01/2017,375000,New,,"79 Collins Ave, Clontarf, Dublin 9, D09 K4N8, Ireland",53.3769361,-6.2241726,Dublin City
2014,20/06/2014,2975000,New,,"30 Belgrave Square S, Montpelier, Blackrock, Co. Dublin, A94 RT63, Ireland",53.2953711,-6.1616137,DLR
2015,07/12/2015,310000,New,,"19 Bayview Cres, Hackettsland, Killiney, Co. Dublin, A96 HN99, Ireland",53.2445681,-6.1201746,DLR
2013,03/10/2013,59125,New,,"64 Mount Olive Grove, Donaghmede, Dublin 5, D05 XN40, Ireland",53.3896119,-6.1617495,Dublin City
2015,04/02/2015,131835,New,greater than or equal to 38 sq metres and less than 125 sq metres,"Ashtown, Dublin, Ireland",53.3678093,-6.3181386,Dublin City
2015,25/03/2015,297699,New,,"135 Philipsburgh Ave, Fionnradharc, Dublin 3, D03 Y328, Ireland",53.3671691,-6.2400743,Dublin City
2015,02/10/2015,431718,New,less than 38 sq metres,"Castleknock Rd, Castleknock, Co. Dublin, Ireland",53.3711773,-6.3540486,Fingal
2013,21/05/2013,375000,New,,"Shanganagh Rd, Shankill, Dublin, Ireland",53.2426836,-6.1216566,DLR
2012,10/12/2012,72000,New,,"20 Cardiffsbridge Ave, Finglas West, Dublin 11, D11 V9H7, Ireland",53.3873318,-6.3141816,Dublin City
2015,01/09/2015,405286,New,greater than or equal to 38 sq metres and less than 125 sq metres,"Malahide, Co. Dublin, Ireland",53.4509236,-6.1501378,Fingal
2017,16/02/2017,259731,New,greater than or equal to 38 sq metres and less than 125 sq metres,"33 Glenageary Rd Upper, Honeypark, Dublin, Ireland",53.2827569,-6.141109,DLR
2013,31/05/2013,210000,New,,"428 Pearse Villas, Thomastown, Sallynoggin, Co. Dublin, A96 DR67, Ireland",53.2727756,-6.1405688,DLR
2017,03/03/2017,251101,New,greater than or equal to 38 sq metres and less than 125 sq metres,"Honeypark, DÃŒÂ¼n Laoghaire, Co. Dublin, Ireland",53.2804207,-6.143294,DLR
2016,19/02/2016,170000,New,,"14 Grange View Rd, Kilmahuddrick, Dublin 22, D22 C966, Ireland",53.3251661,-6.4269264,South Dublin
2016,02/11/2016,409692,New,greater than or equal to 38 sq metres and less than 125 sq metres,"4 Hazelbrook Square, Whitehall, Dublin, Ireland",53.2932857,-6.2670921,DLR
2017,20/02/2017,685000,New,,"Ard Evin, Cruagh Rd, Rathfarnham, Dublin 16, Ireland",53.2573103,-6.3014092,South Dublin
2013,28/02/2013,148450,New,,"60 Huntstown Lawn, Blakestown, Dublin 15, D15 V0AH, Ireland",53.398195,-6.403374,Fingal
2015,30/03/2015,240000,New,,"Dublin, Ireland",53.3498053,-6.2603097,Dublin City
2014,18/07/2014,440000,New,,"13 Heather Lawn, Rathfarnham, Dublin 16, D16 PD65, Ireland",53.276755,-6.263784,DLR
2012,07/08/2012,387665,New,greater than or equal to 38 sq metres and less than 125 sq metres,"Doonsalla Dr, Kilbogget, Dublin, Ireland",53.262961,-6.1405327,DLR
2015,30/06/2015,274798,New,greater than or equal to 38 sq metres and less than 125 sq metres,"Swords, Co. Dublin, Ireland",53.4557467,-6.2197406,Fingal
2014,15/07/2014,106300,New,,"75, City Gate, St Augustine St, Merchants Quay, Dublin 8, Ireland",53.3448153,-6.2770799,Dublin City
2012,31/07/2012,190000,New,,"2 Shelmalier Rd, East Wall, Dublin 3, D03 P762, Ireland",53.3541694,-6.2343096,Dublin City
2015,06/10/2015,270000,New,,"Dublin, Ireland",53.3498053,-6.2603097,Dublin City
2014,19/12/2014,363000,New,,"121 Merrion Grove, Booterstown, Dublin, Ireland",53.3040886,-6.2035742,DLR
2014,22/09/2014,180000,New,,"Dublin, Ireland",53.3498053,-6.2603097,Dublin City
2014,02/04/2014,298000,New,greater than or equal to 38 sq metres and less than 125 sq metres,"5, 18 Baggot Street Lower, Dublin 2, Ireland",53.3377939,-6.25143,Dublin City
2014,18/12/2014,259000,New,,"29 The Dr, Hunter's Run, Clonee, Co. Dublin, D15 FX74, Ireland",53.4032785,-6.421912,Fingal
2017,11/05/2017,287000,New,,"64 Knocknarea Ave, Drimnagh, Dublin 12, D12 NP74, Ireland",53.330605,-6.3113407,Dublin City
2012,04/05/2012,154186,New,greater than or equal to 38 sq metres and less than 125 sq metres,"Kensington Lodge, Rochestown Ave, DÃƒÂºn Laoghaire, Dublin, Ireland",53.2780899,-6.1535517,DLR
2015,29/05/2015,314000,New,,"27 Ormond Way, Windmill Lands, Swords, Co. Dublin, K67 A8R2, Ireland",53.4604963,-6.2475394,Fingal
2016,04/03/2016,314300,New,,"22, Harbour Court, George's Pl, DÃƒÂºn Laoghaire, Dublin, Ireland",53.2951756,-6.141188,DLR
2016,29/07/2016,300000,New,,"3 Hazel Grove, Portmarnock, Co. Dublin, D13 KW99, Ireland",53.4190443,-6.1418441,Fingal
2014,07/10/2014,443733,New,greater than or equal to 38 sq metres and less than 125 sq metres,"616, The Cubes Offices Beacon South Quarter, Unit 4, Sandyford, Dublin 18, Ireland",53.2775885,-6.2155982,DLR
2014,06/10/2014,145564,New,,"105, Charlestown Centre, St Margaret's Rd, Charlestown, Dublin 11, Ireland",53.4042001,-6.3031353,Fingal
2016,18/10/2016,338000,New,,"53 Forest Rd, Cremona, Swords, Co. Dublin, Ireland",53.4500593,-6.2316717,Fingal
2014,15/07/2014,253100,New,,"Temple Hill, Terenure Rd W, Terenure, Dublin 6W, Co. Dublin, Ireland",53.3112335,-6.2911449,Dublin City
2015,03/09/2015,425000,New,,"4 Orchard Ln, Newtownpark, Blackrock, Co. Dublin, A94 P2X2, Ireland",53.288223,-6.1782964,DLR
2017,16/02/2017,242099,New,greater than or equal to 38 sq metres and less than 125 sq metres,"33 Glenageary Rd Upper, Honeypark, Dublin, Ireland",53.2827569,-6.141109,DLR
2015,20/01/2015,170000,New,,"7 Briarfield Walk, Donaghmede, Dublin 5, D05 EP49, Ireland",53.3879007,-6.1601297,Dublin City
2016,19/12/2016,283847,New,,"Apartment 68, Hannah Square, St Edmunds Park, Yellow Walls, Lucan, Co. Dublin, Ireland",53.3547158,-6.4083401,South Dublin
2015,07/12/2015,205000,New,,"47 Applewood Ct, Applewood, Swords, Co. Dublin, K67 WP79, Ireland",53.4704545,-6.2309349,Fingal
2017,03/03/2017,150000,New,,"2 Forbes Ln, Ushers, Dublin 8, D08 E6C8, Ireland",53.339486,-6.2881046,Dublin City
2012,01/06/2012,166623,New,,"S Lotts Rd, Dublin, Co. Dublin, Ireland",53.3391848,-6.2327352,Dublin City
2015,16/10/2015,620000,New,,"Ballsbridge, Co. Dublin, Ireland",53.3288697,-6.2305235,Dublin City
2013,25/01/2013,90000,New,,"Boyne Court, Harold's Cross Rd, Harold's Cross, Dublin 6W, Co. Dublin, Ireland",53.3280749,-6.2774077,Dublin City
2015,04/09/2015,295000,New,,"6 Firhouse Rd, Dublin, Ireland",53.2795006,-6.346117,South Dublin
2013,09/05/2013,475000,New,,"Proby Square, Rockfield, Blackrock, Co. Dublin, Ireland",53.29283,-6.1790509,DLR
2015,13/11/2015,232500,New,,"1 Windsor Villas, Fionnradharc, Dublin 3, D03 R3W7, Ireland",53.3646168,-6.2391406,Dublin City
2016,16/11/2016,827500,New,,"3, 15 Eaton Square, Terenure, Dublin 6W, Co. Dublin, D6W N564, Ireland",53.3127301,-6.2853588,Dublin City
2016,14/12/2016,285000,New,,"21 Glenaulin Rd, Redcowfarm, Dublin 20, D20 PP92, Ireland",53.350508,-6.365007,South Dublin
2016,26/02/2016,258000,New,,"3 Holywell View, Feltrim Hall, Swords, Co. Dublin, K67 T320, Ireland",53.4469889,-6.2077567,Fingal
2016,07/04/2016,260000,New,,"City Square, Gloucester St S, Dublin 2, Ireland",53.3461183,-6.249453,Dublin City
2017,07/04/2017,215185,New,greater than or equal to 38 sq metres and less than 125 sq metres,"33 Glenageary Rd Upper, Honeypark, Dublin, Ireland",53.2827569,-6.141109,DLR
2013,03/05/2013,110000,New,,"Parliament St, Dublin, Ireland",53.3447318,-6.2674052,Dublin City
2016,03/05/2016,188000,New,,"Davis Court, Thomas Davis St W, Inchicore, Dublin 8, Ireland",53.3377508,-6.3209591,Dublin City
2015,12/05/2015,136000,New,,"14 Newcastle Manor Cresent, Commons Little, Newcastle, Co. Dublin, D22 P958, Ireland",53.2964833,-6.4912292,South Dublin
2015,10/12/2015,286344,New,greater than or equal to 38 sq metres and less than 125 sq metres,"Dublin, Ireland",53.3498053,-6.2603097,Dublin City
2015,01/07/2015,462555,New,greater than or equal to 38 sq metres and less than 125 sq metres,"Seascapes, Clontarf Rd, Clontarf East, Dublin 3, Ireland",53.3597721,-6.1866796,Dublin City
2013,06/09/2013,140105,New,greater than or equal to 38 sq metres and less than 125 sq metres,"Sandyford, Dublin, Ireland",53.2719967,-6.2207197,DLR
2015,30/03/2015,125000,New,,"Thornfield Square, Watery Ln, Clondalkin, Dublin 22, Ireland",53.3243492,-6.393099,South Dublin
2014,11/07/2014,179000,New,,"22 Chapel Gate, Tankardstown, Balbriggan, Co. Dublin, K32 FW52, Ireland",53.6096501,-6.1918145,Fingal
2014,16/09/2014,145000,New,,"Flemington Ln, Balbriggan, Co. Dublin, Ireland",53.6170425,-6.2098174,Fingal
2016,12/05/2016,262115,New,greater than or equal to 38 sq metres and less than 125 sq metres,"19 Dalriada Ave, Ballycullen, Dublin 16, D16 AP11, Ireland",53.2717441,-6.3261257,South Dublin
2013,20/12/2013,145000,New,,"Apartment 14, Creevagh House, Dundrum Rd, Dundrum, Dublin 14, Ireland",53.2960976,-6.2457995,DLR
2012,01/06/2012,131159,New,,"S Lotts Rd, Dublin, Co. Dublin, Ireland",53.3391848,-6.2327352,Dublin City
2015,08/10/2015,210000,New,,"22 Knockmeenagh Rd, Bushelloaf, Dublin 22, D22 CX58, Ireland",53.3163081,-6.3884291,South Dublin
2012,26/10/2012,178500,New,,"44 The Park, Millbrook Lawns, Dublin 24, D24 RHE6, Ireland",53.2825389,-6.3545079,South Dublin
2012,05/03/2012,220264,New,greater than or equal to 38 sq metres and less than 125 sq metres,"7 The Blvd Cruise Park, Tyrrelstown, Dublin, Ireland",53.4197364,-6.391486,Fingal
2017,13/04/2017,308370,New,greater than or equal to 38 sq metres and less than 125 sq metres,"Honeypark, DÃŒÂ¼n Laoghaire, Co. Dublin, Ireland",53.2804207,-6.143294,DLR
2013,06/05/2013,95000,New,,"Unit 3, The Cubes Offices Beacon South Quarter, Unit 4, Sandyford, Dublin 18, Ireland",53.2775885,-6.2155982,DLR
2013,27/08/2013,85000,New,,"St Margaret's Rd, Dublin, Ireland",53.4059176,-6.2834899,Fingal
2014,13/11/2014,192000,New,,"21 The Lawn, Finglas North, Dublin 11, D11 C1Y9, Ireland",53.3886768,-6.3007287,Dublin City
2015,10/04/2015,260503,New,,"33, 7 S Circular Rd, Wood Quay, Dublin, Ireland",53.3324353,-6.2688332,Dublin City
2015,15/06/2015,111834,New,greater than or equal to 38 sq metres and less than 125 sq metres,"307, West Park Gate, BÃƒÂ³thar an tSeanbhÃƒÂ¡bhÃƒÂºin, Tallaght, Dublin 24, Ireland",53.2873796,-6.3625987,South Dublin
2013,11/12/2013,245000,New,,"4 Hope St, Dublin 4, D04 P897, Ireland",53.3403384,-6.2348947,Dublin City
2014,15/12/2014,300000,New,,"Mountain View Rd, Killiney, Co. Dublin, Ireland",53.2540759,-6.1262557,DLR
2013,04/07/2013,151000,New,,"19, Alexander Court, Fenian St, Dublin 2, Ireland",53.341278,-6.246897,Dublin City
2015,24/04/2015,362000,New,,"20 Osprey Park, Templeogue, Dublin 6W, Co. Dublin, D6W AV63, Ireland",53.3020586,-6.3306385,South Dublin
